street,latitude,longitude,mrt_stations,mrt_latitude,mrt_longitude,mrt_nearest_distance_m
BROOKVALE DRIVE,1.329273637813376,103.77013712751192,BEAUTY WORLD MRT STATION (DT5),1.34122317558549,103.775794285083,1463.6457985430588
PASIR RIS GROVE,1.37258148698092,103.942726005987,PASIR RIS MRT STATION (EW1),1.37304331635804,103.949284527763,731.6688507126903
BEATTY ROAD,1.3129169524829627,103.8590470682134,BENDEMEER MRT STATION (DT23),1.31367252847691,103.862977620945,445.34016505137225
BEDOK RISE,1.3270811524845063,103.947772361153,TANAH MERAH MRT STATION (EW4),1.32718729074675,103.946348600798,158.88441233928714
CANBERRA DRIVE,1.4448907493299976,103.8251533736201,CANBERRA MRT STATION (NS12),1.44307664075699,103.829702590959,544.5496573620004
ROSEWOOD DRIVE,1.4314454595391095,103.78699843127166,WOODLANDS MRT STATION (TE2),1.43605761708128,103.787938777173,520.6150088828769
HANDY ROAD,1.3001355033193769,103.84675039539806,DHOBY GHAUT MRT STATION (CC1),1.29891164362677,103.84629250696,144.60464469571815
BEDOK SOUTH AVENUE 3,1.3248904018879364,103.94484144674205,TANAH MERAH MRT STATION (EW4),1.32718729074675,103.946348600798,304.36649518568737
MOUNT SOPHIA,1.3005048366887535,103.84769412298188,DHOBY GHAUT MRT STATION (CC1),1.29891164362677,103.84629250696,235.30168589836927
LORONG CHUAN,1.3523242139642255,103.8653232116615,LORONG CHUAN MRT STATION (CC14),1.35161217074555,103.864151938651,152.28278993406843
WEST COAST CRESCENT,1.2976821284999007,103.76509723182168,CLEMENTI MRT STATION (EW23),1.31511625277378,103.765191452888,1927.805620525041
BEDOK SOUTH AVENUE 1,1.3152296527664915,103.93396503008545,SIGLAP MRT STATION (TE28),1.31000869432289,103.930025826708,724.8969104712502
DAKOTA CRESCENT,1.306828432359795,103.88897282542548,DAKOTA MRT STATION (CC8),1.30854798388121,103.889064718377,190.41408077207117
ROSEWOOD DRIVE,1.4272872745580247,103.78605033238148,WOODLANDS SOUTH MRT STATION (TE3),1.42739605281442,103.79326432221,802.9005027898089
BUKIT DRIVE,1.3482758033093507,103.77454073794398,BEAUTY WORLD MRT STATION (DT5),1.34122317558549,103.775794285083,792.2237685476595
TAMPINES AVENUE 1,1.3479372447310638,103.92627263230976,TAMPINES WEST MRT STATION (DT31),1.34551530560119,103.938436971222,1379.9935444109756
BAYSHORE ROAD,1.31261384042124,103.9393340072967,BAYSHORE MRT STATION (TE29),1.31312248291264,103.942309776767,335.91726247768884
FERNVALE LINK,1.392534673439053,103.88056693152794,SENGKANG MRT STATION (NE16),1.39169462601522,103.895484694279,1662.7482438857294
TANJONG RHU ROAD,1.29662403711841,103.87430454892625,TANJONG RHU MRT STATION (TE23),1.29726507940646,103.873453254621,118.32322860759447
STIRLING ROAD,1.29267425403127,103.80666324335688,QUEENSTOWN MRT STATION (EW19),1.29455085184931,103.806077155982,217.51463896911818
FLORA DRIVE,1.3541073056171706,103.96774997162686,TAMPINES EAST MRT STATION (DT33),1.35619148271544,103.9546344625,1477.6914022869682
ARTHUR ROAD,1.2995893530595894,103.88803342433518,KATONG PARK MRT STATION (TE24),1.29783147778951,103.886178949925,283.50975738152715
GEYLANG EAST AVENUE 2,1.3168663519589228,103.88886458185677,PAYA LEBAR MRT STATION (CC9),1.3172473854035,103.892260753884,380.302216425568
LORONG LEW LIAN,1.351385755595366,103.87634346569314,SERANGOON MRT STATION (NE12),1.34970788089564,103.873574849884,359.6625281514452
TANAH MERAH KECHIL ROAD,1.3270870992370192,103.94274908760974,TANAH MERAH MRT STATION (EW4),1.32718729074675,103.946348600798,400.7431342092892
CARDIFF GROVE,1.3549624659864552,103.86579795842206,LORONG CHUAN MRT STATION (CC14),1.35161217074555,103.864151938651,413.27438026514665
WEST COAST ROAD,1.294455883210807,103.7689203126866,KENT RIDGE MRT STATION (CC24),1.29353349887123,103.784572738173,1744.9627869788976
HILLVIEW RISE,1.3641057456990862,103.76367099249912,HILLVIEW MRT STATION (DT3),1.36234486803558,103.767418254007,460.24178769559046
JURONG LAKE LINK,1.3451369788131922,103.72597121361072,LAKESIDE MRT STATION (EW26),1.34425911493819,103.720949087456,567.2754328403529
HILLVIEW AVENUE,1.355909051755491,103.76073531598354,HUME MRT STATION (DT4),1.3545953239503,103.769118851887,944.2333820762831
BISHAN STREET 15,1.3527606992939187,103.85096310756208,BISHAN MRT STATION (CC15),1.35131580146658,103.84914026532,258.2230932513506
SERANGOON AVENUE 3,1.3503472836646075,103.86332198925736,LORONG CHUAN MRT STATION (CC14),1.35161217074555,103.864151938651,167.61047713905486
RIVER VALLEY ROAD,1.2943410506219957,103.82844028238412,GREAT WORLD MRT STATION (TE15),1.29394816169384,103.833720837731,589.2833699109668
JALAN BUKIT HO SWEE,1.287058597655219,103.827787531999,TIONG BAHRU MRT STATION (EW17),1.28610253615775,103.827445112419,112.37525331992899
BUKIT BATOK STREET 52,1.3548763119837628,103.7531380430425,BUKIT GOMBAK MRT STATION (NS3),1.35861159094192,103.751790910733,439.3958282769528
TOH TUCK ROAD,1.3390465480815834,103.77158775335936,BEAUTY WORLD MRT STATION (DT5),1.34122317558549,103.775794285083,526.3877039270716
LORONG CHUAN,1.349887666730464,103.86045179462768,LORONG CHUAN MRT STATION (CC14),1.35161217074555,103.864151938651,453.7928662503734
COMPASSVALE ROAD,1.3888619645255549,103.89644750029252,SENGKANG MRT STATION (NE16),1.39169462601522,103.895484694279,331.0413561006194
FERNVALE STREET,1.397993195752828,103.8752697583492,SENGKANG MRT STATION (NE16),1.39169462601522,103.895484694279,2354.996800201107
CHOA CHU KANG LOOP,1.3865270993765182,103.74334198431248,CHOA CHU KANG MRT STATION (NS4),1.38536316540225,103.744370779756,172.25738185471837
DRAYCOTT PARK,1.3113884126408737,103.83218202898564,NEWTON MRT STATION (NS21),1.3123189224097,103.837984594021,653.9158836664058
TAMPINES STREET 86,1.3539046355161577,103.92860647866084,TAMPINES WEST MRT STATION (DT31),1.34551530560119,103.938436971222,1434.3735969672525
TAMPINES STREET 86,1.3512844009932277,103.92717471706622,TAMPINES WEST MRT STATION (DT31),1.34551530560119,103.938436971222,1406.3656771780834
HILLVIEW RISE,1.364790399712292,103.76416893366392,HILLVIEW MRT STATION (DT3),1.36234486803558,103.767418254007,451.5381755371503
BUKIT BATOK EAST AVENUE 2,1.3520262739382234,103.75737216619596,BUKIT BATOK MRT STATION (NS2),1.34903331201636,103.749566478309,929.592185459601
JURONG LAKE LINK,1.3455985411442866,103.724023040218,LAKESIDE MRT STATION (EW26),1.34425911493819,103.720949087456,372.78235467046085
CANBERRA DRIVE,1.438788976699242,103.83104275841204,CANBERRA MRT STATION (NS12),1.44307664075699,103.829702590959,497.0125205753228
KOVAN ROAD,1.3610780830618483,103.88525140239528,KOVAN MRT STATION (NE13),1.36017917065237,103.885064856353,101.54209070670701
ANG MO KIO CENTRAL 3,1.376437298613225,103.84672340509034,YIO CHU KANG MRT STATION (NS15),1.38175587099132,103.84494727118,620.429291547698
LORONG 5 TOA PAYOH,1.3393382098846685,103.85122473635838,BRADDELL MRT STATION (NS18),1.3404690010277,103.846799083148,508.1513401356658
GEYLANG EAST AVENUE 1,1.3172278260998425,103.88501590534123,ALJUNIED MRT STATION (EW9),1.3164326118157,103.882906044385,250.73133502900754
CORPORATION ROAD,1.344777100802906,103.71700553481551,LAKESIDE MRT STATION (EW26),1.34425911493819,103.720949087456,442.5968025488998
WEST COAST PARK,1.3187335610612183,103.75462194912517,CLEMENTI MRT STATION (EW23),1.31511625277378,103.765191452888,1242.4295244051991
PETIR ROAD,1.369261685839679,103.77649888786524,HILLVIEW MRT STATION (DT3),1.36234486803558,103.767418254007,1267.361665598649
TANJONG RHU ROAD,1.2980890246016448,103.87104933330444,TANJONG RHU MRT STATION (TE23),1.29726507940646,103.873453254621,282.62285193933553
PASIR RIS HEIGHTS,1.3823276810293526,103.94078168451678,PASIR RIS MRT STATION (EW1),1.37304331635804,103.949284527763,1396.1949803337538
AMBER ROAD,1.303365144761378,103.90197413029198,MARINE PARADE MRT STATION (TE26),1.30261163483383,103.904983086812,345.07947274201246
JALAN EUNOS,1.3275838505606163,103.9074288852449,KAKI BUKIT MRT STATION (DT28),1.33496735995428,103.908459338046,824.4460822343789
MOUNT VERNON ROAD,1.3410912750446702,103.88145756437616,BARTLEY MRT STATION (CC12),1.34250117805245,103.880177899184,211.15450666691942
COMPASSVALE BOW,1.3804694925529364,103.8943184522844,BUANGKOK MRT STATION (NE15),1.38287001971672,103.893122569706,296.9335381105098
CANBERRA DRIVE,1.440184140656832,103.8305722683071,CANBERRA MRT STATION (NS12),1.44307664075699,103.829702590959,334.1603093625205
PASIR RIS LINK,1.3781221764223817,103.96023426564192,PASIR RIS MRT STATION (EW1),1.37304331635804,103.949284527763,1341.7563733138675
WEST COAST CRESCENT,1.2989145936878803,103.76445303124956,CLEMENTI MRT STATION (EW23),1.31511625277378,103.765191452888,1793.381247590486
WEST COAST ROAD,1.296737346631761,103.76819367598496,KENT RIDGE MRT STATION (CC24),1.29353349887123,103.784572738173,1856.9532356288419
WOODLEIGH CLOSE,1.3364082545485718,103.86975047480078,WOODLEIGH MRT STATION (NE11),1.33919004519388,103.87081830915,329.7545450219556
HILLVIEW AVENUE,1.3562871428985748,103.7597837602923,BUKIT GOMBAK MRT STATION (NS3),1.35861159094192,103.751790910733,925.9023614753044
MOUNT FABER ROAD,1.2703680539766609,103.8247119416636,HARBOURFRONT MRT STATION (NE1 / CC29),1.26538938374901,103.821530157095,654.5687342365122
COVE DRIVE,1.244201732516356,103.83981225854374,HARBOURFRONT MRT STATION (NE1 / CC29),1.26538938374901,103.821530157095,3103.0126680616777
SUNRISE AVENUE,1.3899988628032345,103.85728849356832,YIO CHU KANG MRT STATION (NS15),1.38175587099132,103.84494727118,1648.3493089102028
KOVAN ROAD,1.3603566647217986,103.8836370166714,KOVAN MRT STATION (NE13),1.36017917065237,103.885064856353,160.10942326030764
PEMIMPIN DRIVE,1.3521703128454758,103.84096637602696,MARYMOUNT MRT STATION (CC16),1.348707263451,103.839423132332,419.6774386522536
PINE GROVE,1.316695863892564,103.77599440397437,DOVER MRT STATION (EW22),1.31140529320963,103.778637841909,654.8110903810671
ELIAS GREEN,1.3719419889324036,103.94182405611296,PASIR RIS MRT STATION (EW1),1.37304331635804,103.949284527763,839.1443761078282
KEPPEL BAY DRIVE,1.266382684175158,103.81706844553604,HARBOURFRONT MRT STATION (NE1 / CC29),1.26538938374901,103.821530157095,508.55721941819087
PASIR RIS LINK,1.3755605509020776,103.96107272475818,PASIR RIS MRT STATION (EW1),1.37304331635804,103.949284527763,1341.0872958604166
TANJONG RHU ROAD,1.2976912554151645,103.8758468866942,TANJONG RHU MRT STATION (TE23),1.29726507940646,103.873453254621,270.5261487871214
HILLVIEW AVENUE,1.357148513538158,103.75829443322478,BUKIT GOMBAK MRT STATION (NS3),1.35861159094192,103.751790910733,741.6280495929647
CENTRAL BOULEVARD,1.2803449800408624,103.8521432776598,DOWNTOWN MRT STATION (DT17),1.27944638178916,103.852840829581,126.0935648045334
KEPPEL BAY VIEW,1.2671449928930936,103.81100230063198,TELOK BLANGAH MRT STATION (CC28),1.27070647717762,103.809761611219,417.3159607257917
YISHUN AVENUE 1,1.4110482633371029,103.8325132450678,KHATIB MRT STATION (NS14),1.41738337009565,103.832979908243,702.4265562430988
PHOENIX ROAD,1.3769650257966224,103.75636513326762,BUKIT PANJANG MRT STATION (DT1),1.37900211641036,103.761535114929,617.876529529204
BRIGHT HILL DRIVE,1.3596593848152805,103.832691966964,BRIGHT HILL MRT STATION (TE7),1.36328318545185,103.832893619992,401.3293413982691
LEEDON HEIGHTS,1.3162805968110476,103.8045197942378,FARRER ROAD MRT STATION (CC20),1.31743915158967,103.807379214161,343.04374732267956
BAYSHORE ROAD,1.3107719329792031,103.93797790760594,BAYSHORE MRT STATION (TE29),1.31312248291264,103.942309776767,547.6966445660846
DUNDEE ROAD,1.294336667488726,103.80702012733846,QUEENSTOWN MRT STATION (EW19),1.29455085184931,103.806077155982,107.58369045483326
EDGEDALE PLAINS,1.3970455925093976,103.91371813155966,PUNGGOL MRT STATION (NE17),1.40454653668991,103.902072622229,1538.6743875910383
KIM TIAN ROAD,1.2840138869086206,103.82975664254391,TIONG BAHRU MRT STATION (EW17),1.28610253615775,103.827445112419,345.7144851112226
WEST COAST WAY,1.3172517267545043,103.75626041175792,CLEMENTI MRT STATION (EW23),1.31511625277378,103.765191452888,1021.6028979648737
SIMEI STREET 4,1.340706375178139,103.95623977164756,SIMEI MRT STATION (EW3),1.34319707851829,103.953377214378,421.1162732609605
EASTWOOD ROAD,1.3209884192320396,103.95588211994176,TANAH MERAH MRT STATION (EW4),1.32718729074675,103.946348600798,1263.1402014607118
HILLVIEW AVENUE,1.3603444064304366,103.76451501410982,HILLVIEW MRT STATION (DT3),1.36234486803558,103.767418254007,391.56279920973145
PASIR RIS LINK,1.377279878426766,103.96099513407172,PASIR RIS MRT STATION (EW1),1.37304331635804,103.949284527763,1384.8865388208164
WEST COAST CRESCENT,1.2983155629093148,103.76492826974368,CLEMENTI MRT STATION (EW23),1.31511625277378,103.765191452888,1857.9660276085237
DEPOT ROAD,1.282201354238727,103.803023755865,LABRADOR PARK MRT STATION (CC27),1.27225417749656,103.802631578766,1100.7731457295404
BISHAN STREET 21,1.347704452110314,103.8430217606298,MARYMOUNT MRT STATION (CC16),1.348707263451,103.839423132332,415.5547400492809
UPPER PAYA LEBAR ROAD,1.3425768101510769,103.88227640215216,BARTLEY MRT STATION (CC12),1.34250117805245,103.880177899184,233.6903566731962
PASIR RIS GROVE,1.3717875550656364,103.94343399779616,PASIR RIS MRT STATION (EW1),1.37304331635804,103.949284527763,665.7356863557501
LAKESIDE DRIVE,1.3426141871216266,103.7193755672048,LAKESIDE MRT STATION (EW26),1.34425911493819,103.720949087456,252.48540080628982
TANAH MERAH KECHIL AVENUE,1.3280051883946855,103.94697620182,TANAH MERAH MRT STATION (EW4),1.32718729074675,103.946348600798,114.27011225829378
TANAH MERAH KECHIL ROAD,1.3286349483860216,103.9446810515058,TANAH MERAH MRT STATION (EW4),1.32718729074675,103.946348600798,245.08056750022314
RIFLE RANGE ROAD,1.3375438180246653,103.7814586839175,KING ALBERT PARK MRT STATION (DT6),1.33566161262214,103.783399113441,299.9166765389563
STURDEE ROAD,1.31354230356322,103.85837937819872,BENDEMEER MRT STATION (DT23),1.31367252847691,103.862977620945,511.94302741623704
GRANGE ROAD,1.29757247826903,103.82697915937813,ORCHARD BOULEVARD MRT STATION (TE13),1.30242224836722,103.823868523249,638.2963637267433
OCEAN DRIVE,1.2444030379301774,103.84251846914482,HARBOURFRONT MRT STATION (NE1 / CC29),1.26538938374901,103.821530157095,3292.598801653193
PHENG GECK AVENUE,1.3318347854082508,103.86965527462225,POTONG PASIR MRT STATION (NE10),1.33137949021368,103.869055656782,83.59187486910987
DAKOTA CRESCENT,1.3063591636500222,103.88705800833768,DAKOTA MRT STATION (CC8),1.30854798388121,103.889064718377,329.322569877737
TREVOSE CRESCENT,1.3230217604229633,103.82529938578644,STEVENS MRT STATION (DT10),1.32006555750626,103.826024401924,336.69286350019985
HOLLAND ROAD,1.318464639500046,103.77985852432175,DOVER MRT STATION (EW22),1.31140529320963,103.778637841909,792.3198247100161
WEST COAST CRESCENT,1.298235908820501,103.76623463563207,CLEMENTI MRT STATION (EW23),1.31511625277378,103.765191452888,1870.1499120028707
SHUNFU ROAD,1.3518148538609245,103.8382982223072,MARYMOUNT MRT STATION (CC16),1.348707263451,103.839423132332,365.7160420727081
SENGKANG SQUARE,1.3888338896867671,103.8953149617317,SENGKANG MRT STATION (NE16),1.39169462601522,103.895484694279,316.8893704977535
MILTONIA CLOSE,1.418350662615136,103.84727447481382,KHATIB MRT STATION (NS14),1.41738337009565,103.832979908243,1594.3716298947336
HOUGANG STREET 11,1.3514444034172692,103.88181731927492,SERANGOON MRT STATION (NE12),1.34970788089564,103.873574849884,937.1763061278443
JALAN LOYANG BESAR,1.3793919518401545,103.96368774531622,PASIR RIS MRT STATION (EW1),1.37304331635804,103.949284527763,1749.8870360849019
WEST COAST VALE,1.3206143005349047,103.75329091330204,CLEMENTI MRT STATION (EW23),1.31511625277378,103.765191452888,1457.28310259593
ELIAS ROAD,1.377447834407619,103.94160227719895,PASIR RIS MRT STATION (EW1),1.37304331635804,103.949284527763,983.9323105885046
BEDOK SOUTH AVENUE 3,1.323530576272172,103.9455737184478,TANAH MERAH MRT STATION (EW4),1.32718729074675,103.946348600798,413.4354084114264
LORONG 3 TOA PAYOH,1.3380950575574184,103.84677579753767,BRADDELL MRT STATION (NS18),1.3404690010277,103.846799083148,262.51131859656317
RIFLE RANGE ROAD,1.3381940161393278,103.78213404522612,KING ALBERT PARK MRT STATION (DT6),1.33566161262214,103.783399113441,313.421198711024
DOVER RISE,1.3060939479574167,103.78434569653288,BUONA VISTA MRT STATION (EW21),1.3072237082044,103.790253514502,669.2481920489045
BISHAN STREET 15,1.3519880092044536,103.85204278469575,BISHAN MRT STATION (CC15),1.35131580146658,103.84914026532,331.45930955524614
MARINA BOULEVARD,1.2796257989067608,103.8549872038058,DOWNTOWN MRT STATION (DT17),1.27944638178916,103.852840829581,239.69654281393278
TANJONG RHU ROAD,1.2967699689868992,103.87278395843228,TANJONG RHU MRT STATION (TE23),1.29726507940646,103.873453254621,92.44180590041479
MARINE PARADE ROAD,1.2999959196569837,103.90310061621813,MARINE PARADE MRT STATION (TE26),1.30261163483383,103.904983086812,357.13667608543324
MILTONIA CLOSE,1.4168204043347123,103.84895919261665,KHATIB MRT STATION (NS14),1.41738337009565,103.832979908243,1779.3546445654113
RHU CROSS,1.2970862857661207,103.86689876398898,NICOLL HIGHWAY MRT STATION (CC5),1.29976684675139,103.86363696572,468.6471988957931
JURONG WEST STREET 41,1.3462606685567855,103.7228324890997,LAKESIDE MRT STATION (EW26),1.34425911493819,103.720949087456,304.822162794277
ALEXANDRA VIEW,1.2906069454252016,103.81786692016226,REDHILL MRT STATION (EW18),1.28963453412887,103.81674097205,165.11710447739574
WHAMPOA EAST,1.3213353348028691,103.86458734279024,BOON KENG MRT STATION (NE9),1.31933570922514,103.861569454156,402.10906522726833
JALAN LEMPENG,1.3186313361523323,103.76113716107004,CLEMENTI MRT STATION (EW23),1.31511625277378,103.765191452888,595.5308427847906
GATEWAY DRIVE,1.3362963694280343,103.74173137219344,JURONG EAST MRT STATION (EW24 / NS1),1.33315281585758,103.742286332403,353.04273944876974
YIO CHU KANG ROAD,1.3860886231959608,103.84038852782751,LENTOR MRT STATION (TE5),1.38550657972169,103.835743809669,520.8887630048243
DAIRY FARM HEIGHTS,1.3657285140528204,103.77141333324772,HILLVIEW MRT STATION (DT3),1.36234486803558,103.767418254007,581.084775083196
SIN MING WALK,1.3651436409626798,103.83014515696924,BRIGHT HILL MRT STATION (TE7),1.36328318545185,103.832893619992,368.61617164619247
SERANGOON AVENUE 2,1.3489758319129923,103.87098454662382,SERANGOON MRT STATION (CC13),1.35063361526525,103.872771660431,270.47707658211704
CHIN SWEE ROAD,1.2861077603445534,103.83957867557254,CHINATOWN MRT STATION (NE4),1.28435959278583,103.843426681863,469.8565238537933
COVE DRIVE,1.2424409850962668,103.83675517458336,HARBOURFRONT MRT STATION (NE1 / CC29),1.26538938374901,103.821530157095,3051.2459036680543
WOODLEIGH LANE,1.3385388391226674,103.8700799859202,WOODLEIGH MRT STATION (NE11),1.33919004519388,103.87081830915,109.254347365724
JALAN SEMPADAN,1.3113982282261332,103.92747802473296,SIGLAP MRT STATION (TE28),1.31000869432289,103.930025826708,322.5001651032309
PUNGGOL FIELD WALK,1.391989302213717,103.9137514009559,PUNGGOL MRT STATION (NE17),1.40454653668991,103.902072622229,1901.8880995290763
BEDOK RESERVOIR VIEW,1.33740523107706,103.93570827628642,BEDOK RESERVOIR MRT STATION (DT30),1.33660782955099,103.932234623286,396.50919060304585
TAMPINES AVENUE 1,1.3487304971669214,103.92726581503992,TAMPINES WEST MRT STATION (DT31),1.34551530560119,103.938436971222,1293.0622856887928
HARBOURFRONT AVENUE,1.26461000244217,103.8170466137331,HARBOURFRONT MRT STATION (NE1 / CC29),1.26538938374901,103.821530157095,506.3723588697381
PRINCE CHARLES CRESCENT,1.292375067444936,103.82283669393536,REDHILL MRT STATION (EW18),1.28963453412887,103.81674097205,743.0062794635694
UPPER SERANGOON VIEW,1.3735640310835395,103.90169249524584,HOUGANG MRT STATION (NE14),1.37129226620797,103.892380513029,1066.32116810479
TANAH MERAH KECHIL LINK,1.3275760895994406,103.9444987913742,TANAH MERAH MRT STATION (EW4),1.32718729074675,103.946348600798,210.30646450989718
PHENG GECK AVENUE,1.3296441028082675,103.8692331129161,POTONG PASIR MRT STATION (NE10),1.33137949021368,103.869055656782,192.9038750033663
PINE GROVE,1.3181518165355872,103.77514003548278,DOVER MRT STATION (EW22),1.31140529320963,103.778637841909,841.4531391155699
FERNVALE CLOSE,1.394561041720033,103.8815805647222,SENGKANG MRT STATION (NE16),1.39169462601522,103.895484694279,1579.475287968737
TERRASSE LANE,1.368448340691386,103.87706607453096,KOVAN MRT STATION (NE13),1.36017917065237,103.885064856353,1276.112129180206
JALAN SENDUDOK,1.4421659871314434,103.82450398185114,CANBERRA MRT STATION (NS12),1.44307664075699,103.829702590959,587.2222545631419
JURONG EAST STREET 32,1.3461154814996137,103.7335870372462,CHINESE GARDEN MRT STATION (EW25),1.34235282081401,103.732596738363,430.4057402656798
YISHUN STREET 81,1.4132161422396985,103.83484157476136,KHATIB MRT STATION (NS14),1.41738337009565,103.832979908243,505.2233816990877
CHOA CHU KANG NORTH 7,1.3993115194014791,103.74880666612265,YEW TEE MRT STATION (NS5),1.39753506936297,103.747405150236,250.82229231682427
DOVER RISE,1.304416722314186,103.78427862672272,ONE-NORTH MRT STATION (CC23),1.29975987493555,103.78745750525,624.7510945740867
JELLICOE ROAD,1.3082758122416234,103.86311741978174,LAVENDER MRT STATION (EW11),1.30737781747063,103.862767633888,106.65369052760877
SIGLAP ROAD,1.307698754858441,103.9251069477117,SIGLAP MRT STATION (TE28),1.31000869432289,103.930025826708,604.0822290221339
SELETAR ROAD,1.3868247562755682,103.86911221532166,BUANGKOK MRT STATION (NE15),1.38287001971672,103.893122569706,2707.5923172289267
WOODGROVE AVENUE,1.4309435202293417,103.78398122071216,WOODLANDS MRT STATION (NS9),1.43681962961519,103.786066799253,689.9590778407737
BEDOK RESERVOIR ROAD,1.3371448743418242,103.9306484071531,BEDOK RESERVOIR MRT STATION (DT30),1.33660782955099,103.932234623286,186.2498863029159
PASIR RIS GROVE,1.3715213647483648,103.94646450594917,PASIR RIS MRT STATION (EW1),1.37304331635804,103.949284527763,356.1090782905184
LAKESIDE DRIVE,1.3428024873151052,103.71860198903192,LAKESIDE MRT STATION (EW26),1.34425911493819,103.720949087456,306.8738815378238
SIMEI RISE,1.34861038545995,103.96056372190353,UPPER CHANGI MRT STATION (DT34),1.34173977444995,103.961472788634,766.425543291608
JALAN MATA AYER,1.4256938391032905,103.82449333770866,YISHUN MRT STATION (NS13),1.42944308477331,103.835005047246,1241.0868094893633
TAMPINES STREET 86,1.354634549727728,103.92971544186216,TAMPINES WEST MRT STATION (DT31),1.34551530560119,103.938436971222,1399.59840614528
SINARAN DRIVE,1.3194366702506377,103.84505620212656,NOVENA MRT STATION (NS20),1.32044079120154,103.843825618748,176.30535920634898
SIN MING WALK,1.36497333869878,103.83068715829076,BRIGHT HILL MRT STATION (TE7),1.36328318545185,103.832893619992,308.58325215353017
SIMS DRIVE,1.3195074199446093,103.88100529027756,ALJUNIED MRT STATION (EW9),1.3164326118157,103.882906044385,400.43094754556125
PASIR RIS GROVE,1.3701355162540982,103.94372780887088,PASIR RIS MRT STATION (EW1),1.37304331635804,103.949284527763,696.9904920550497
TANGLIN ROAD,1.2919741760661398,103.81656975165204,REDHILL MRT STATION (EW18),1.28963453412887,103.81674097205,259.40636935956366
MARINE PARADE ROAD,1.300819092468142,103.9037457610649,MARINE PARADE MRT STATION (TE26),1.30261163483383,103.904983086812,241.34932272952693
SERANGOON AVENUE 3,1.3507167401781064,103.86255478707136,LORONG CHUAN MRT STATION (CC14),1.35161217074555,103.864151938651,203.46178696583172
PUNGGOL WALK,1.4057553714731503,103.90028350113974,PUNGGOL MRT STATION (NE17),1.40454653668991,103.902072622229,239.81144663263876
ANG MO KIO AVENUE 2,1.3755004316575845,103.83442218814928,MAYFLOWER MRT STATION (TE6),1.37146318831015,103.836567766945,506.2639004642383
RIVER VALLEY ROAD,1.293173476169185,103.82857764482874,GREAT WORLD MRT STATION (TE15),1.29394816169384,103.833720837731,578.7669162008191
HOUGANG STREET 32,1.363767144181473,103.89531474186546,HOUGANG MRT STATION (NE14),1.37129226620797,103.892380513029,893.8710225837486
TAMPINES STREET 86,1.351666239568172,103.9281656881896,TAMPINES WEST MRT STATION (DT31),1.34551530560119,103.938436971222,1330.122103825712
PASIR RIS GROVE,1.3701175326351136,103.9462484068913,PASIR RIS MRT STATION (EW1),1.37304331635804,103.949284527763,467.79273093017974
KEPPEL BAY DRIVE,1.2673609389443514,103.81460470412294,TELOK BLANGAH MRT STATION (CC28),1.27070647717762,103.809761611219,653.7355637850455
SIMEI STREET 3,1.341740410505735,103.95341462424445,SIMEI MRT STATION (EW3),1.34319707851829,103.953377214378,161.12505134564825
SENGKANG EAST AVENUE,1.3811848666489066,103.9025753984062,BUANGKOK MRT STATION (NE15),1.38287001971672,103.893122569706,1068.3559353678008
HONG SAN WALK,1.378074569438784,103.74788171381468,CHOA CHU KANG MRT STATION (NS4),1.38536316540225,103.744370779756,895.655439851252
WEST COAST RISE,1.3169015631943704,103.75363894063872,CLEMENTI MRT STATION (EW23),1.31511625277378,103.765191452888,1300.75135543701
CHESTNUT AVENUE,1.37084569109685,103.77571903637534,CASHEW MRT STATION (DT2),1.36981544925552,103.76443921414,1260.4665949500172
JURONG EAST AVENUE 1,1.3441907037770795,103.73336179099852,CHINESE GARDEN MRT STATION (EW25),1.34235282081401,103.732596738363,220.33879750345872
PUNGGOL CENTRAL,1.4037393895204355,103.90417669997592,PUNGGOL MRT STATION (NE17),1.40454653668991,103.902072622229,250.587840371608
LORONG MYDIN,1.3211432793018332,103.9118083378099,KEMBANGAN MRT STATION (EW6),1.3210381335934,103.912947930851,127.35734641998575
CANBERRA DRIVE,1.441536658199913,103.8277712803094,CANBERRA MRT STATION (NS12),1.44307664075699,103.829702590959,274.20645392057924
YIO CHU KANG ROAD,1.3851278501653022,103.83926218690694,LENTOR MRT STATION (TE5),1.38550657972169,103.835743809669,393.78340129613395
UPPER SERANGOON CRESCENT,1.3781199534518025,103.90229625163276,BUANGKOK MRT STATION (NE15),1.38287001971672,103.893122569706,1148.1048040309668
BEDOK RESERVOIR VIEW,1.3374009394508388,103.93469854954996,BEDOK RESERVOIR MRT STATION (DT30),1.33660782955099,103.932234623286,287.89180087076585
POTONG PASIR AVENUE 1,1.3364923386851888,103.86562886475464,WOODLEIGH MRT STATION (NE11),1.33919004519388,103.87081830915,650.0176693340661
HAVELOCK ROAD,1.2902425961258717,103.841385089711,FORT CANNING MRT STATION (DT20),1.29248194822996,103.844331362465,410.88771482876655
BAYSHORE ROAD,1.3119948568752398,103.94027285891836,BAYSHORE MRT STATION (TE29),1.31312248291264,103.942309776767,258.718507109913
PARI DEDAP WALK,1.3328959543851355,103.94242416252388,TANAH MERAH MRT STATION (EW4),1.32718729074675,103.946348600798,767.5999788722426
ELIAS ROAD,1.3800439315231825,103.94457970733826,PASIR RIS MRT STATION (EW1),1.37304331635804,103.949284527763,934.54108173938
OCEAN DRIVE,1.2492215480522937,103.84631638503964,MARINA BAY MRT STATION (TE20),1.27474173226842,103.855309167928,2994.1149404033117
DUCHESS AVENUE,1.3240326004044407,103.80155685704754,TAN KAH KEE MRT STATION (DT8),1.32555623519898,103.807760304729,710.6409157871454
COMMONWEALTH AVENUE,1.2954634291932612,103.80651578015956,QUEENSTOWN MRT STATION (EW19),1.29455085184931,103.806077155982,112.09529035044692
YISHUN CLOSE,1.4357593553250754,103.84435098976314,YISHUN MRT STATION (NS13),1.42944308477331,103.835005047246,1252.8058900240098
SIMEI STREET 4,1.3426389926426885,103.95460975038291,SIMEI MRT STATION (EW3),1.34319707851829,103.953377214378,150.41036573607113
COMPASSVALE BOW,1.3812844784416352,103.8920047166727,BUANGKOK MRT STATION (NE15),1.38287001971672,103.893122569706,214.97351711682006
BEDOK RESERVOIR ROAD,1.3378707096893736,103.92851470697272,BEDOK RESERVOIR MRT STATION (DT30),1.33660782955099,103.932234623286,436.90507163321115
BEDOK RESERVOIR ROAD,1.3375203787385594,103.92782091968188,BEDOK RESERVOIR MRT STATION (DT30),1.33660782955099,103.932234623286,501.4562467148541
SIMEI STREET 3,1.3385356800302728,103.9503434114723,SIMEI MRT STATION (EW3),1.34319707851829,103.953377214378,616.1713485535095
JALAN KEMBANGAN,1.3200261026136886,103.91348728951152,KEMBANGAN MRT STATION (EW6),1.3210381335934,103.912947930851,126.98755321456538
TANJONG RHU ROAD,1.2967497419633405,103.8714050333416,TANJONG RHU MRT STATION (TE23),1.29726507940646,103.873453254621,234.96348818907802
ARCADIA ROAD,1.335471541437573,103.8089308029993,TAN KAH KEE MRT STATION (DT8),1.32555623519898,103.807760304729,1104.0952640937205
MAR THOMA ROAD,1.3263750864709585,103.86214237025662,BOON KENG MRT STATION (NE9),1.31933570922514,103.861569454156,780.9853410522552
EASTWOOD ROAD,1.321762216535176,103.95857344908158,EXPO MRT STATION (CG1),1.33454977824817,103.961548211018,1452.2256872075739
UPPER SERANGOON VIEW,1.3760117099323512,103.90242737356937,HOUGANG MRT STATION (NE14),1.37129226620797,103.892380513029,1233.8806872537614
BUKIT BATOK EAST AVENUE 5,1.3530806827203885,103.75614580918894,BUKIT GOMBAK MRT STATION (NS3),1.35861159094192,103.751790910733,780.3311260915374
HINDHEDE WALK,1.3482952099845351,103.77230280156066,HUME MRT STATION (DT4),1.3545953239503,103.769118851887,781.5724452661067
ALEXANDRA VIEW,1.2904773421945972,103.81601645093934,REDHILL MRT STATION (EW18),1.28963453412887,103.81674097205,123.23428038991834
SELETAR ROAD,1.3856795236859638,103.8697511266388,BUANGKOK MRT STATION (NE15),1.38287001971672,103.893122569706,2619.431080173216
FLORA DRIVE,1.356043017648034,103.96394108385832,TAMPINES EAST MRT STATION (DT33),1.35619148271544,103.9546344625,1035.8527308156529
BEDOK RESERVOIR ROAD,1.3379536965374452,103.92067459974396,BEDOK NORTH MRT STATION (DT29),1.33474211664091,103.91797832995,464.919914311471
CASHEW ROAD,1.3736549886783085,103.768032018763,CASHEW MRT STATION (DT2),1.36981544925552,103.76443921414,583.1956635216892
WEST COAST CRESCENT,1.2991998567096372,103.7653882522013,CLEMENTI MRT STATION (EW23),1.31511625277378,103.765191452888,1760.090689593568
KOVAN RISE,1.3635725605781712,103.88543677557668,KOVAN MRT STATION (NE13),1.36017917065237,103.885064856353,377.49985614804046
JOO CHIAT LANE,1.3125604066689938,103.90179380577996,EUNOS MRT STATION (EW7),1.31978354916088,103.903225807255,814.4431017285156
NEWTON ROAD,1.314782335142337,103.84195839953192,NEWTON MRT STATION (DT11),1.31399286264569,103.837714613091,480.2925495622634
GEYLANG EAST AVENUE 1,1.3162349498515855,103.8844179813533,ALJUNIED MRT STATION (EW9),1.3164326118157,103.882906044385,169.67757102296036
PRINCE CHARLES CRESCENT,1.292065647242285,103.81729521990172,REDHILL MRT STATION (EW18),1.28963453412887,103.81674097205,275.80602645421567
MARTIN PLACE,1.29349666394026,103.83810491011177,GREAT WORLD MRT STATION (TE15),1.29394816169384,103.833720837731,490.4566824152486
JALAN MERAH SAGA,1.311452162423209,103.7971283002158,HOLLAND VILLAGE MRT STATION (CC21),1.31224029631595,103.796399122407,119.08047099850685
CORPORATION ROAD,1.3422675176744414,103.71627024786343,LAKESIDE MRT STATION (EW26),1.34425911493819,103.720949087456,565.3591220703313
JALAN LOYANG BESAR,1.3785276421172423,103.95926142612036,PASIR RIS MRT STATION (EW1),1.37304331635804,103.949284527763,1265.1248275434486
FLORA ROAD,1.360248589059126,103.96329661891242,TAMPINES EAST MRT STATION (DT33),1.35619148271544,103.9546344625,1063.2740642289048
FLORA DRIVE,1.356269562756838,103.96626075556748,TAMPINES EAST MRT STATION (DT33),1.35619148271544,103.9546344625,1293.9048979230645
MOUNT SINAI LANE,1.3164462601101783,103.78531577001618,DOVER MRT STATION (EW22),1.31140529320963,103.778637841909,928.9944230487569
SERANGOON AVENUE 3,1.3485874167048244,103.86752471669644,LORONG CHUAN MRT STATION (CC14),1.35161217074555,103.864151938651,502.74669330009846
SIN MING WALK,1.3664480514304564,103.83096876868414,BRIGHT HILL MRT STATION (TE7),1.36328318545185,103.832893619992,410.31156036345817
CUSCADEN ROAD,1.3036101123014727,103.82516716046132,ORCHARD BOULEVARD MRT STATION (TE13),1.30242224836722,103.823868523249,195.29509739553637
PRINCE CHARLES CRESCENT,1.2931174058121584,103.82050553244494,REDHILL MRT STATION (EW18),1.28963453412887,103.81674097205,569.0747392055607
ALEXANDRA VIEW,1.290951037135854,103.81700026563036,REDHILL MRT STATION (EW18),1.28963453412887,103.81674097205,148.4047709914487
DUCHESS AVENUE,1.3246642552344807,103.802991509285,TAN KAH KEE MRT STATION (DT8),1.32555623519898,103.807760304729,539.8060488884777
NASSIM HILL,1.3071348097334807,103.82211877699638,NAPIER MRT STATION (TE12),1.30678223364785,103.818956796815,354.0520729078342
HUME AVENUE,1.3583201089811143,103.7637424292379,HILLVIEW MRT STATION (DT3),1.36234486803558,103.767418254007,604.4851007520597
ARCADIA ROAD,1.3333730989986698,103.80951086622804,TAN KAH KEE MRT STATION (DT8),1.32555623519898,103.807760304729,886.0324530108926
KEW CRESCENT,1.3185850908859025,103.95006204738374,TANAH MERAH MRT STATION (EW4),1.32718729074675,103.946348600798,1037.0887059222164
JALAN LOYANG BESAR,1.3800507957664512,103.96390014470428,PASIR RIS MRT STATION (EW1),1.37304331635804,103.949284527763,1801.6745898726076
LOYANG BESAR CLOSE,1.378509038192061,103.95722819785117,PASIR RIS MRT STATION (EW1),1.37304331635804,103.949284527763,1070.879546956304
TONG WATT ROAD,1.2932047992230713,103.84020168175677,FORT CANNING MRT STATION (DT20),1.29248194822996,103.844331362465,466.4962236196275
ANTHONY ROAD,1.3096602531258084,103.83844525690664,NEWTON MRT STATION (NS21),1.3123189224097,103.837984594021,298.4187521744405
FLORA DRIVE,1.3550944641778178,103.96472821596232,TAMPINES EAST MRT STATION (DT33),1.35619148271544,103.9546344625,1129.852380014069
PALM GROVE AVENUE,1.35954268279941,103.8782621862735,KOVAN MRT STATION (NE13),1.36017917065237,103.885064856353,760.3225588250078
HAZEL PARK TERRACE,1.3723880055314546,103.76468656992648,CASHEW MRT STATION (DT2),1.36981544925552,103.76443921414,285.7892362879655
ROSEWOOD DRIVE,1.4300288769417642,103.78557894535952,WOODLANDS MRT STATION (TE2),1.43605761708128,103.787938777173,716.4906489886614
BISHAN STREET 21,1.349476444890436,103.84703812427306,BISHAN MRT STATION (NS17),1.35083898784737,103.848143964542,194.53790124661447
JALAN JURONG KECHIL,1.341729902028196,103.7704771259518,BEAUTY WORLD MRT STATION (DT5),1.34122317558549,103.775794285083,594.3894739089928
SIMEI RISE,1.3498379911226237,103.96078350381738,UPPER CHANGI MRT STATION (DT34),1.34173977444995,103.961472788634,898.7413323455123
POH HUAT ROAD,1.3668559557635218,103.8799281546669,KOVAN MRT STATION (NE13),1.36017917065237,103.885064856353,933.7310714310928
ANG MO KIO AVENUE 8,1.3703043031854452,103.84838631388943,ANG MO KIO MRT STATION (NS16),1.36993284962262,103.84955809232,136.7202394573548
DUNEARN ROAD,1.336739350830846,103.7828207358328,KING ALBERT PARK MRT STATION (DT6),1.33566161262214,103.783399113441,135.4431167124114
SIMEI STREET 1,1.3467311803366386,103.95860745763387,UPPER CHANGI MRT STATION (DT34),1.34173977444995,103.961472788634,637.4219228483221
HINDHEDE DRIVE,1.3473421178950844,103.77586402894616,BEAUTY WORLD MRT STATION (DT5),1.34122317558549,103.775794285083,676.6462153038262
COVE WAY,1.2407659898460262,103.8396404850768,HARBOURFRONT MRT STATION (NE1 / CC29),1.26538938374901,103.821530157095,3387.5800774898184
MOUNT SOPHIA,1.3009648346284366,103.8459565572612,DHOBY GHAUT MRT STATION (NE6),1.29970458121203,103.845488542541,148.76829908943498
CHESTNUT AVENUE,1.3704718374284994,103.777207678453,HILLVIEW MRT STATION (DT3),1.36234486803558,103.767418254007,1412.2487667792063
SAMPAN PLACE,1.3009051495252812,103.88193121357334,KATONG PARK MRT STATION (TE24),1.29783147778951,103.886178949925,582.2292182801358
BISHAN STREET 25,1.3599551414437532,103.84630693327637,BISHAN MRT STATION (CC15),1.35131580146658,103.84914026532,1005.9880704055527
JALAN MEMBINA,1.2844885180023342,103.82789364006136,TIONG BAHRU MRT STATION (EW17),1.28610253615775,103.827445112419,185.31921724937317
DUNEARN ROAD,1.3379303694349425,103.78047500576297,KING ALBERT PARK MRT STATION (DT6),1.33566161262214,103.783399113441,410.89443804278767
JERVOIS ROAD,1.293990198879105,103.82193122195888,REDHILL MRT STATION (EW18),1.28963453412887,103.81674097205,752.0778446833357
PINE GROVE,1.318459094486853,103.77663773696833,DOVER MRT STATION (EW22),1.31140529320963,103.778637841909,811.1140718734155
TAMPINES LANE,1.3450856145544043,103.94795095439748,SIMEI MRT STATION (EW3),1.34319707851829,103.953377214378,638.9715311734062
CLUB STREET,1.281548629255539,103.84647257005696,TELOK AYER MRT STATION (DT18),1.28206894769394,103.848648781083,248.93442725909833
WEST COAST DRIVE,1.314099304030472,103.7594480670024,CLEMENTI MRT STATION (EW23),1.31511625277378,103.765191452888,649.0001096162941
LOYANG AVENUE,1.369077870658421,103.97057148207551,TAMPINES EAST MRT STATION (DT33),1.35619148271544,103.9546344625,2275.096535663046
SIMEI STREET 4,1.3414531558603515,103.95567693663811,SIMEI MRT STATION (EW3),1.34319707851829,103.953377214378,320.4492314763831
FABER HEIGHTS,1.323245903995146,103.757371615396,CLEMENTI MRT STATION (EW23),1.31511625277378,103.765191452888,1251.1829005843056
CANBERRA DRIVE,1.4394698321670736,103.83101783038344,CANBERRA MRT STATION (NS12),1.44307664075699,103.829702590959,424.8323797941172
JALAN LOYANG BESAR,1.3787944880958811,103.95994700851578,PASIR RIS MRT STATION (EW1),1.37304331635804,103.949284527763,1346.2712200090673
LEONIE HILL,1.2984736286048997,103.83270380040484,GREAT WORLD MRT STATION (TE15),1.29394816169384,103.833720837731,513.044174389922
COVE WAY,1.239948546945672,103.8382528117812,HARBOURFRONT MRT STATION (NE1 / CC29),1.26538938374901,103.821530157095,3373.03577523113
HILLVIEW AVENUE,1.3563635892802934,103.76176145932344,HUME MRT STATION (DT4),1.3545953239503,103.769118851887,841.8160068230537
BEDOK RIA CRESCENT,1.3284732432004207,103.95135621616777,TANAH MERAH MRT STATION (EW4),1.32718729074675,103.946348600798,575.1520573719345
WOODGROVE DRIVE,1.4292890269951026,103.7829695161197,WOODLANDS MRT STATION (NS9),1.43681962961519,103.786066799253,901.2149504262569
OCEAN DRIVE,1.2515038203247708,103.84802505268252,MARINA SOUTH PIER MRT STATION (NS28),1.27102703612006,103.862447515736,2690.113084816768
ANG MO KIO AVENUE 9,1.3832182826434607,103.8392051042974,LENTOR MRT STATION (TE5),1.38550657972169,103.835743809669,460.8694917613942
RIVER VALLEY ROAD,1.2947159593621331,103.84005116735494,FORT CANNING MRT STATION (DT20),1.29248194822996,103.844331362465,536.5906075302713
BEDOK RESERVOIR ROAD,1.337001067708019,103.93027457393067,BEDOK RESERVOIR MRT STATION (DT30),1.33660782955099,103.932234623286,222.42466347617759
TOH TUCK ROAD,1.3396867131474917,103.77094144115544,BEAUTY WORLD MRT STATION (DT5),1.34122317558549,103.775794285083,566.1618081392687
MOUNT SINAI DRIVE,1.3177473262075396,103.7795188077582,DOVER MRT STATION (EW22),1.31140529320963,103.778637841909,708.0901615751395
CHUN TIN ROAD,1.3414820114602612,103.77337887231984,BEAUTY WORLD MRT STATION (DT5),1.34122317558549,103.775794285083,270.3288387045914
OCEAN DRIVE,1.2452889471814053,103.8435456932676,HARBOURFRONT MRT STATION (NE1 / CC29),1.26538938374901,103.821530157095,3308.067724748622
KENG LEE ROAD,1.3140442567454114,103.8419229099357,NEWTON MRT STATION (DT11),1.31399286264569,103.837714613091,468.3775732733502
HAIG ROAD,1.309953699807114,103.89707388644123,DAKOTA MRT STATION (CC8),1.30854798388121,103.889064718377,904.7971944816453
CASHEW ROAD,1.3687939105744305,103.76566459767515,CASHEW MRT STATION (DT2),1.36981544925552,103.76443921414,177.0765555126195
JALAN LEMPENG,1.317567923579397,103.7609501424947,CLEMENTI MRT STATION (EW23),1.31511625277378,103.765191452888,544.3268876213386
JALAN PAKIS,1.3672418631199577,103.76983451431786,HILLVIEW MRT STATION (DT3),1.36234486803558,103.767418254007,604.5775483731078
TRANSIT ROAD,1.4042880284735155,103.81774894855144,SPRINGLEAF MRT STATION (TE4),1.39758106126824,103.817856949947,741.7199076045131
GERALD DRIVE,1.3875812207891611,103.87848345519936,BUANGKOK MRT STATION (NE15),1.38287001971672,103.893122569706,1710.4085645610578
HOUGANG STREET 11,1.3530442109513223,103.87823462339205,SERANGOON MRT STATION (NE12),1.34970788089564,103.873574849884,636.4146031878056
CACTUS DRIVE,1.388271460342446,103.85130834513689,YIO CHU KANG MRT STATION (NS15),1.38175587099132,103.84494727118,1010.0469138324235
LEONIE HILL ROAD,1.29916780002903,103.83342756803074,ORCHARD MRT STATION (TE14),1.30304426265194,103.831375000068,485.70869661084834
JURONG EAST STREET 13,1.334300310954755,103.73779544915662,JURONG EAST MRT STATION (EW24 / NS1),1.33315281585758,103.742286332403,515.6439088540147
BUKIT BATOK STREET 31,1.3569741752191848,103.74954027346088,BUKIT GOMBAK MRT STATION (NS3),1.35861159094192,103.751790910733,309.0583210561417
LAKEPOINT DRIVE,1.341837508259338,103.7183525008836,LAKESIDE MRT STATION (EW26),1.34425911493819,103.720949087456,393.96129380117867
BEDOK SOUTH AVENUE 3,1.3215916449286431,103.9446711358038,TANAH MERAH MRT STATION (EW4),1.32718729074675,103.946348600798,646.2889205555045
ROSEWOOD DRIVE,1.4289686900021694,103.7858014084585,WOODLANDS MRT STATION (TE2),1.43605761708128,103.787938777173,819.151736682219
HILLVIEW AVENUE,1.3569328929499025,103.75957575987498,BUKIT GOMBAK MRT STATION (NS3),1.35861159094192,103.751790910733,886.02656498973
BEDOK RESERVOIR ROAD,1.33742586450947,103.93252758902544,BEDOK RESERVOIR MRT STATION (DT30),1.33660782955099,103.932234623286,96.15089460489958
HINDHEDE WALK,1.3477699500581866,103.7729257668009,BEAUTY WORLD MRT STATION (DT5),1.34122317558549,103.775794285083,791.1734717063086
DELTA ROAD,1.291840342225601,103.82551253903812,TIONG BAHRU MRT STATION (EW17),1.28610253615775,103.827445112419,669.9213686215957
FARRER DRIVE,1.314413613753148,103.80716648587824,FARRER ROAD MRT STATION (CC20),1.31743915158967,103.807379214161,335.38509228017966
CHOA CHU KANG AVENUE 3,1.3841719994501247,103.74841590682124,CHOA CHU KANG MRT STATION (NS4),1.38536316540225,103.744370779756,469.0443952727735
BUKIT BATOK CENTRAL LINK,1.3490007332803222,103.74890788475103,BUKIT BATOK MRT STATION (NS2),1.34903331201636,103.749566478309,73.38266976579736
TANJONG RHU ROAD,1.2974619167226888,103.87414832700462,TANJONG RHU MRT STATION (TE23),1.29726507940646,103.873453254621,80.35911744404729
CASHEW ROAD,1.3705870004824332,103.7680788913083,CASHEW MRT STATION (DT2),1.36981544925552,103.76443921414,413.939388720421
SWISS VIEW,1.347042770674402,103.7907314114226,KING ALBERT PARK MRT STATION (DT6),1.33566161262214,103.783399113441,1499.8712598197321
UPPER CHANGI ROAD,1.331974032278363,103.94785362448764,TANAH MERAH MRT STATION (EW4),1.32718729074675,103.946348600798,555.1637508589638
JALAN LOYANG BESAR,1.3804064604169608,103.96418993692218,PASIR RIS MRT STATION (EW1),1.37304331635804,103.949284527763,1847.8303681701436
JALAN HAJIJAH,1.312875396589809,103.9347812676138,SIGLAP MRT STATION (TE28),1.31000869432289,103.930025826708,616.9043667482362
SCOTTS ROAD,1.3099901784558348,103.83549968224104,NEWTON MRT STATION (NS21),1.3123189224097,103.837984594021,377.8688424899151
EASTWOOD ROAD,1.3223592670805815,103.95474149981423,TANAH MERAH MRT STATION (EW4),1.32718729074675,103.946348600798,1075.8483813595167
HOLLAND ROAD,1.3199559113376302,103.78057523970698,DOVER MRT STATION (EW22),1.31140529320963,103.778637841909,969.7571682264116
FLORA DRIVE,1.357741574302462,103.9662137012406,TAMPINES EAST MRT STATION (DT33),1.35619148271544,103.9546344625,1299.988157798502
KANDIS LINK,1.4561829210849004,103.83676007285192,CANBERRA MRT STATION (NS12),1.44307664075699,103.829702590959,1648.3593854864678
DUCHESS ROAD,1.3240431455793449,103.80702826403868,TAN KAH KEE MRT STATION (DT8),1.32555623519898,103.807760304729,186.09056221866564
BRIGHT HILL DRIVE,1.356451963423572,103.8306337259383,UPPER THOMSON MRT STATION (TE8),1.35441643365401,103.832898468504,337.9118960811261
LOYANG BESAR CLOSE,1.3776386181760338,103.95786819293676,PASIR RIS MRT STATION (EW1),1.37304331635804,103.949284527763,1081.9935141305245
HINDHEDE WALK,1.3465180778601014,103.7736601797956,BEAUTY WORLD MRT STATION (DT5),1.34122317558549,103.775794285083,631.8215788517784
LORONG ONG LYE,1.3457737596001624,103.87906099439284,BARTLEY MRT STATION (CC12),1.34250117805245,103.880177899184,382.6185170080504
PARK VALE,1.329995136711343,103.81162319816396,TAN KAH KEE MRT STATION (DT8),1.32555623519898,103.807760304729,652.479633272851
JALAN LOYANG BESAR,1.3786014277047731,103.9570091910916,PASIR RIS MRT STATION (EW1),1.37304331635804,103.949284527763,1056.757843380418
KENSINGTON PARK DRIVE,1.3670990667539742,103.86929828023926,LORONG CHUAN MRT STATION (CC14),1.35161217074555,103.864151938651,1805.697790536295
ORCHARD BOULEVARD,1.3023181707859943,103.82497343886055,ORCHARD BOULEVARD MRT STATION (TE13),1.30242224836722,103.823868523249,123.50443697120829
INDUS ROAD,1.290094674481801,103.83009224472296,HAVELOCK MRT STATION (TE16),1.28850523975311,103.833585838226,426.68449997014363
CORONATION ROAD,1.3228070752549737,103.80220727694277,TAN KAH KEE MRT STATION (DT8),1.32555623519898,103.807760304729,688.7148780603613
LEONIE HILL,1.297599081865104,103.83267778471247,GREAT WORLD MRT STATION (TE15),1.29394816169384,103.833720837731,420.0581028669265
KELLOCK ROAD,1.293358193957923,103.83042423664986,GREAT WORLD MRT STATION (TE15),1.29394816169384,103.833720837731,372.6376923450883
OCEAN WAY,1.246513532437128,103.84306431897971,HARBOURFRONT MRT STATION (NE1 / CC29),1.26538938374901,103.821530157095,3178.0604837483124
JALAN TIGA RATUS,1.3416455526711493,103.96084043872892,UPPER CHANGI MRT STATION (DT34),1.34173977444995,103.961472788634,71.14091191211217
TELOK BLANGAH DRIVE,1.2720123885202443,103.80851431684476,TELOK BLANGAH MRT STATION (CC28),1.27070647717762,103.809761611219,200.3023208756817
COVE DRIVE,1.239926934052075,103.8313831937824,HARBOURFRONT MRT STATION (NE1 / CC29),1.26538938374901,103.821530157095,3021.5140297337744
PALM GROVE AVENUE,1.3605632966736898,103.87771185491088,KOVAN MRT STATION (NE13),1.36017917065237,103.885064856353,819.4051071193298
CHOA CHU KANG ROAD,1.3773266584511406,103.7581436423188,BUKIT PANJANG MRT STATION (DT1),1.37900211641036,103.761535114929,420.4464232299984
DUCHESS ROAD,1.3244395214678264,103.80765081861716,TAN KAH KEE MRT STATION (DT8),1.32555623519898,103.807760304729,124.08020702674169
TOH YI ROAD,1.337998692592658,103.77087843751774,BEAUTY WORLD MRT STATION (DT5),1.34122317558549,103.775794285083,653.0113498202799
HOW SUN DRIVE,1.345038192336694,103.87912511808916,BARTLEY MRT STATION (CC12),1.34250117805245,103.880177899184,304.01374487549515
JALAN EUNOS,1.3293672020288612,103.90579132382312,KAKI BUKIT MRT STATION (DT28),1.33496735995428,103.908459338046,686.7443355828159
LEEDON HEIGHTS,1.3124399204954105,103.80340250179934,FARRER ROAD MRT STATION (CC20),1.31743915158967,103.807379214161,708.1272030575996
PAYA LEBAR CRESCENT,1.349813537592388,103.88074548484737,SERANGOON MRT STATION (NE12),1.34970788089564,103.873574849884,798.0971794286901
JALAN LOYANG BESAR,1.3802908091041992,103.96467459631111,PASIR RIS MRT STATION (EW1),1.37304331635804,103.949284527763,1890.9430412965378
NASSIM ROAD,1.307888438628917,103.822990677438,NAPIER MRT STATION (TE12),1.30678223364785,103.818956796815,465.298870550209
LADY HILL ROAD,1.3104376732863112,103.82504008478826,NAPIER MRT STATION (TE12),1.30678223364785,103.818956796815,788.4948593694111
JALAN TAMAN,1.3255340175668864,103.86549809329568,POTONG PASIR MRT STATION (NE10),1.33137949021368,103.869055656782,757.9825381322191
WEST COAST WALK,1.3108846759079054,103.7627451324895,CLEMENTI MRT STATION (EW23),1.31511625277378,103.765191452888,541.3480266697862
ORCHARD BOULEVARD,1.303333388883856,103.82470669291456,ORCHARD BOULEVARD MRT STATION (TE13),1.30242224836722,103.823868523249,137.30145096051376
THOMSON ROAD,1.3247872940057184,103.84086441961566,NOVENA MRT STATION (NS20),1.32044079120154,103.843825618748,582.7471848112787
EVELYN ROAD,1.3160641737103955,103.83949297268828,NEWTON MRT STATION (DT11),1.31399286264569,103.837714613091,302.69963470109474
CHWEE CHIAN ROAD,1.2781568478427463,103.7876649578834,PASIR PANJANG MRT STATION (CC26),1.27621352233766,103.791350313288,463.0316763260466
BUKIT TIMAH ROAD,1.3347026573289384,103.78441416321492,KING ALBERT PARK MRT STATION (DT6),1.33566161262214,103.783399113441,154.9344154605772
AKYAB ROAD,1.3243471220803318,103.84840171382292,NOVENA MRT STATION (NS20),1.32044079120154,103.843825618748,667.7827052665186
TANJONG RHU ROAD,1.2967048620096373,103.88276868821836,KATONG PARK MRT STATION (TE24),1.29783147778951,103.886178949925,399.4541862902131
PASIR PANJANG ROAD,1.2813501268840042,103.78364224420456,HAW PAR VILLA MRT STATION (CC25),1.28257135772488,103.781752725064,249.91237573912989
WILBY ROAD,1.3321774182084023,103.78922865075616,KING ALBERT PARK MRT STATION (DT6),1.33566161262214,103.783399113441,754.5375515508873
CAIRNHILL ROAD,1.3043481247798296,103.8380110136614,SOMERSET MRT STATION (NS23),1.30026416739006,103.839085753124,467.1546181895954
MANDALAY ROAD,1.323274343296016,103.84883501543828,NOVENA MRT STATION (NS20),1.32044079120154,103.843825618748,639.5084859240635
UPPER BUKIT TIMAH VIEW,1.3468136515707727,103.7706204961058,BEAUTY WORLD MRT STATION (DT5),1.34122317558549,103.775794285083,844.7840008628048
TAMARIND ROAD,1.389222750721217,103.85919463732276,YIO CHU KANG MRT STATION (NS15),1.38175587099132,103.84494727118,1787.641816101027
TEMBELING ROAD,1.308340595437012,103.90595135693368,MARINE PARADE MRT STATION (TE26),1.30261163483383,103.904983086812,642.57947834173
TOH TUCK ROAD,1.3414133254451417,103.7663936043934,BEAUTY WORLD MRT STATION (DT5),1.34122317558549,103.775794285083,1046.4060423118108
AMBER ROAD,1.301256235401773,103.90082608797512,TANJONG KATONG MRT STATION (TE25),1.29931925769899,103.897368742078,440.36678308140677
CHAY YAN STREET,1.2821515446939518,103.83010164258611,TIONG BAHRU MRT STATION (EW17),1.28610253615775,103.827445112419,527.5160123321251
HOW SUN ROAD,1.3455376872394156,103.88100617007169,BARTLEY MRT STATION (CC12),1.34250117805245,103.880177899184,348.18481547881146
GRANGE ROAD,1.2997384471904987,103.8258680549304,ORCHARD BOULEVARD MRT STATION (TE13),1.30242224836722,103.823868523249,370.9266392174113
JALAN MATA AYER,1.4262061247708449,103.8242387270507,YISHUN MRT STATION (NS13),1.42944308477331,103.835005047246,1250.4523188362407
TAMPINES ROAD,1.3616989170516258,103.89084010607262,KOVAN MRT STATION (NE13),1.36017917065237,103.885064856353,664.3236140867392
JALAN AMPANG,1.3213223567719967,103.79411801417484,HOLLAND VILLAGE MRT STATION (CC21),1.31224029631595,103.796399122407,1035.8384158918955
SIGLAP ROAD,1.3173237968458804,103.92306432545251,BEDOK MRT STATION (EW5),1.32397996868158,103.929984495066,1065.285153641728
RIVER VALLEY CLOSE,1.2942408571855462,103.83676730367198,GREAT WORLD MRT STATION (TE15),1.29394816169384,103.833720837731,340.58636180273527
AMBER GARDENS,1.3006134093230262,103.89840875177993,TANJONG KATONG MRT STATION (TE25),1.29931925769899,103.897368742078,184.05011932382607
KITCHENER LINK,1.3111053584462398,103.85747986080035,FARRER PARK MRT STATION (NE8),1.31190557325774,103.853477716509,454.1048339567319
FLORA ROAD,1.3565403145408614,103.96733910630606,TAMPINES EAST MRT STATION (DT33),1.35619148271544,103.9546344625,1414.410438844602
FLORA ROAD,1.3590699375939534,103.96659130939598,TAMPINES EAST MRT STATION (DT33),1.35619148271544,103.9546344625,1368.1987562250745
UPPER EAST COAST ROAD,1.3144907944099118,103.93260581606368,SIGLAP MRT STATION (TE28),1.31000869432289,103.930025826708,572.7743801977907
MEYER ROAD,1.2967094109666664,103.89419155242042,TANJONG KATONG MRT STATION (TE25),1.29931925769899,103.897368742078,456.40839902397636
TELOK BLANGAH ROAD,1.2716757861798562,103.80763480136376,TELOK BLANGAH MRT STATION (CC28),1.27070647717762,103.809761611219,259.8336548827314
MEYER ROAD,1.2982443018859686,103.8934318603559,TANJONG KATONG MRT STATION (TE25),1.29931925769899,103.897368742078,453.9770761239894
DAIRY FARM ROAD,1.36487552196591,103.77052078044504,HILLVIEW MRT STATION (DT3),1.36234486803558,103.767418254007,444.429731063437
LORONG LEW LIAN,1.3502902658964877,103.8780227590791,SERANGOON MRT STATION (NE12),1.34970788089564,103.873574849884,499.17389566298675
JERVOIS ROAD,1.2942955352739494,103.8214311532112,REDHILL MRT STATION (EW18),1.28963453412887,103.81674097205,733.5434820992034
UPPER CHANGI ROAD EAST,1.34813938704417,103.96208491044447,UPPER CHANGI MRT STATION (DT34),1.34173977444995,103.961472788634,710.9096692448571
HUME AVENUE,1.3600568177958423,103.76581067028071,HILLVIEW MRT STATION (DT3),1.36234486803558,103.767418254007,309.8655955146778
TOH TUCK ROAD,1.3412365404544349,103.7677434540576,BEAUTY WORLD MRT STATION (DT5),1.34122317558549,103.775794285083,895.9722526387337
HILLVIEW AVENUE,1.358684990390387,103.76219804601683,HILLVIEW MRT STATION (DT3),1.36234486803558,103.767418254007,708.0084667914458
THOMSON ROAD,1.3283636088453028,103.84141836235712,TOA PAYOH MRT STATION (NS19),1.33262928096888,103.847502198048,825.1664477465151
LOWER DELTA ROAD,1.276003419277985,103.82402466347922,TIONG BAHRU MRT STATION (EW17),1.28610253615775,103.827445112419,1179.8073144051293
POH HUAT ROAD WEST,1.3668720908012442,103.87727689557364,KOVAN MRT STATION (NE13),1.36017917065237,103.885064856353,1139.686702018453
ELLIOT ROAD,1.3109945194232864,103.9310283128486,SIGLAP MRT STATION (TE28),1.31000869432289,103.930025826708,155.98060952541087
JALAN JURONG KECHIL,1.3450293205903667,103.7680004552128,BEAUTY WORLD MRT STATION (DT5),1.34122317558549,103.775794285083,964.0827522159085
SIMON LANE,1.3628862084977889,103.88380647368808,KOVAN MRT STATION (NE13),1.36017917065237,103.885064856353,330.47074070281315
FARRER ROAD,1.3151635194234077,103.80567742611277,FARRER ROAD MRT STATION (CC20),1.31743915158967,103.807379214161,314.9381763356492
BUKIT TIMAH ROAD,1.3151230585514162,103.8354966819055,NEWTON MRT STATION (DT11),1.31399286264569,103.837714613091,276.66775684714037
THOMSON ROAD,1.3253446042959995,103.84072442668186,NOVENA MRT STATION (NS20),1.32044079120154,103.843825618748,642.758500442387
WISHART ROAD,1.270630351056541,103.81407488145705,TELOK BLANGAH MRT STATION (CC28),1.27070647717762,103.809761611219,480.10759592610873
KIM SENG ROAD,1.2947472758822889,103.83262392596008,GREAT WORLD MRT STATION (TE15),1.29394816169384,103.833720837731,150.7002102912272
ANDERSON ROAD,1.3108394535979777,103.82832536749515,ORCHARD MRT STATION (NS22),1.30398013681715,103.832245244375,874.9766194805297
SPOTTISWOODE PARK ROAD,1.2752711522384153,103.83683222509148,OUTRAM PARK MRT STATION (NE3),1.27972059383553,103.839439862425,571.2107102552862
BUKIT TIMAH ROAD,1.3352198943675226,103.78184133862632,KING ALBERT PARK MRT STATION (DT6),1.33566161262214,103.783399113441,180.11303408645293
ANAMALAI AVENUE,1.3308208573727107,103.7941582357256,SIXTH AVENUE MRT STATION (DT7),1.33085764536226,103.796906838288,305.9181680637083
LEEDON ROAD,1.3129190287396597,103.79698420373497,HOLLAND VILLAGE MRT STATION (CC21),1.31224029631595,103.796399122407,99.3601944927189
KIM SENG ROAD,1.291981118376208,103.83426190992216,GREAT WORLD MRT STATION (TE15),1.29394816169384,103.833720837731,225.6871468183333
TAMPINES ROAD,1.3617773209496236,103.89166751993284,KOVAN MRT STATION (NE13),1.36017917065237,103.885064856353,755.7504084193326
TREVOSE CRESCENT,1.3222253335422525,103.8235978249979,STEVENS MRT STATION (DT10),1.32006555750626,103.826024401924,360.50338266746695
FLORA ROAD,1.3601576433642224,103.96516522421317,TAMPINES EAST MRT STATION (DT33),1.35619148271544,103.9546344625,1251.324055028792
UPPER EAST COAST ROAD,1.3136000617668615,103.93755343174422,BAYSHORE MRT STATION (TE29),1.31312248291264,103.942309776767,531.9643017994807
SEMBAWANG ROAD,1.436645948492419,103.82483629951471,CANBERRA MRT STATION (NS12),1.44307664075699,103.829702590959,893.8091313741057
FORT ROAD,1.3003202191225671,103.88509756564532,KATONG PARK MRT STATION (TE24),1.29783147778951,103.886178949925,300.35738437266394
ANDERSON ROAD,1.3127642929521408,103.82909641963585,STEVENS MRT STATION (TE11),1.31933437435349,103.825566965234,825.8746307644651
CAIRNHILL CIRCLE,1.3072617551107582,103.83853627438268,NEWTON MRT STATION (NS21),1.3123189224097,103.837984594021,562.5559816091877
PASIR PANJANG HILL,1.2831845476963577,103.78468469405765,HAW PAR VILLA MRT STATION (CC25),1.28257135772488,103.781752725064,333.2742194012225
STEVENS DRIVE,1.3169119711432826,103.82673345553825,STEVENS MRT STATION (TE11),1.31933437435349,103.825566965234,297.6580064001208
ARNASALAM CHETTY ROAD,1.2918837359086606,103.8389455679508,FORT CANNING MRT STATION (DT20),1.29248194822996,103.844331362465,603.0313266824107
BALMORAL ROAD,1.3143263165975891,103.8310652135156,NEWTON MRT STATION (DT11),1.31399286264569,103.837714613091,740.9323879492796
UPPER THOMSON ROAD,1.3813560594065604,103.82742465915646,LENTOR MRT STATION (TE5),1.38550657972169,103.835743809669,1033.3263664154108
MOUNT EMILY ROAD,1.3035107319910428,103.84913479433888,LITTLE INDIA MRT STATION (NE7),1.30680019696174,103.849647059738,368.172841953365
CAIRNHILL CIRCLE,1.305821539828533,103.83884790955884,SOMERSET MRT STATION (NS23),1.30026416739006,103.839085753124,615.0754563263532
EAST COAST AVENUE,1.310520471023699,103.9242668467502,SIGLAP MRT STATION (TE28),1.31000869432289,103.930025826708,643.4145029214772
DEVONSHIRE ROAD,1.2984942799260428,103.83664978517554,SOMERSET MRT STATION (NS23),1.30026416739006,103.839085753124,334.35977127053224
LORONG L TELOK KURAU,1.3122318538641324,103.91518712580148,MARINE TERRACE MRT STATION (TE27),1.30666510344814,103.9151067005,615.6083268772142
RIDLEY PARK,1.3003086996953106,103.81544285922637,NAPIER MRT STATION (TE12),1.30678223364785,103.818956796815,815.6710048109824
NATHAN ROAD,1.2963802453841802,103.82634187128964,ORCHARD BOULEVARD MRT STATION (TE13),1.30242224836722,103.823868523249,722.5772692839638
AMBER GARDENS,1.300377886467433,103.89920938524934,TANJONG KATONG MRT STATION (TE25),1.29931925769899,103.897368742078,235.93412069991453
HOLLAND ROAD,1.310486779124823,103.8018997270778,HOLLAND VILLAGE MRT STATION (CC21),1.31224029631595,103.796399122407,642.1383262966422
ELIAS ROAD,1.3742995580471469,103.9403136035033,PASIR RIS MRT STATION (EW1),1.37304331635804,103.949284527763,1007.9729797534064
BUKIT TIMAH ROAD,1.3339376166609906,103.78754343259988,KING ALBERT PARK MRT STATION (DT6),1.33566161262214,103.783399113441,499.0624411650098
PATERSON ROAD,1.3004672221646327,103.83058788955157,ORCHARD MRT STATION (TE14),1.30304426265194,103.831375000068,298.1162562777022
BALMORAL CRESCENT,1.316290681454677,103.8343668250874,NEWTON MRT STATION (DT11),1.31399286264569,103.837714613091,450.96611006238874
ST. PATRICK'S ROAD,1.3073067150852011,103.91569828012727,MARINE TERRACE MRT STATION (TE27),1.30666510344814,103.9151067005,96.78803419313033
PASIR PANJANG ROAD,1.2871187538210669,103.7801294294808,HAW PAR VILLA MRT STATION (CC25),1.28257135772488,103.781752725064,534.2972860133049
ST. MICHAEL'S ROAD,1.3247038789528482,103.86460898302938,BOON KENG MRT STATION (NE9),1.31933570922514,103.861569454156,683.2049587324619
SIXTH AVENUE,1.329533906080191,103.79523171528032,SIXTH AVENUE MRT STATION (DT7),1.33085764536226,103.796906838288,237.02057936918507
FLORA ROAD,1.3599540528604537,103.96666554809674,TAMPINES EAST MRT STATION (DT33),1.35619148271544,103.9546344625,1402.0743045536053
TOH TUCK ROAD,1.338641360636978,103.7693787133656,BEAUTY WORLD MRT STATION (DT5),1.34122317558549,103.775794285083,768.9441779167616
LORONG L TELOK KURAU,1.313375284707592,103.9141282950434,MARINE TERRACE MRT STATION (TE27),1.30666510344814,103.9151067005,749.9252910627159
SOPHIA ROAD,1.3008381835309766,103.8488807024288,BENCOOLEN MRT STATION (DT21),1.29891843369422,103.850353762717,268.2105992557564
MARIAM WAY,1.3584100466514737,103.96826325407515,TAMPINES EAST MRT STATION (DT33),1.35619148271544,103.9546344625,1536.4420819988568
FLORA DRIVE,1.3590532090063776,103.96518906179232,TAMPINES EAST MRT STATION (DT33),1.35619148271544,103.9546344625,1216.4848389477363
PANDAN VALLEY,1.318643636041153,103.77805113768852,DOVER MRT STATION (EW22),1.31140529320963,103.778637841909,803.0380539775379
TAMAN WARNA,1.3107935464799865,103.7994608573968,HOLLAND VILLAGE MRT STATION (CC21),1.31224029631595,103.796399122407,376.4265625799682
ALEXANDRA ROAD,1.2896664711165793,103.80485518691724,QUEENSTOWN MRT STATION (EW19),1.29455085184931,103.806077155982,556.9482985865599
RIVER VALLEY ROAD,1.2955629713936645,103.8342354794008,GREAT WORLD MRT STATION (TE15),1.29394816169384,103.833720837731,187.518422841347
JALAN RAJA UDANG,1.3285319651031011,103.84242186485942,TOA PAYOH MRT STATION (NS19),1.33262928096888,103.847502198048,724.5190538562192
AMBER GARDENS,1.3024351391840017,103.90000269119264,TANJONG KATONG MRT STATION (TE25),1.29931925769899,103.897368742078,452.365782683627
CUSCADEN WALK,1.303971017450713,103.82786677442569,ORCHARD MRT STATION (TE14),1.30304426265194,103.831375000068,403.6577845361799
FORT ROAD,1.2986883136222924,103.88485340345063,KATONG PARK MRT STATION (TE24),1.29783147778951,103.886178949925,175.3258305004264
HACIENDA GROVE,1.314536366922109,103.92704934620134,SIGLAP MRT STATION (TE28),1.31000869432289,103.930025826708,600.31439300251
PASIR PANJANG ROAD,1.2788096497308752,103.7875539324253,PASIR PANJANG MRT STATION (CC26),1.27621352233766,103.791350313288,510.80257312375994
UPPER EAST COAST ROAD,1.3157749325536725,103.94518953245404,BAYSHORE MRT STATION (TE29),1.31312248291264,103.942309776767,434.437006835883
JALAN RUMBIA,1.2945898860237863,103.84236508163708,FORT CANNING MRT STATION (DT20),1.29248194822996,103.844331362465,319.711002950404
HOLLAND HILL,1.3098519986057855,103.79988955659071,HOLLAND VILLAGE MRT STATION (CC21),1.31224029631595,103.796399122407,469.7196333372897
HILLVIEW AVENUE,1.3541643871337772,103.76145423211696,HUME MRT STATION (DT4),1.3545953239503,103.769118851887,854.3153396285944
AMBER GARDENS,1.3019684122383812,103.89906723219322,TANJONG KATONG MRT STATION (TE25),1.29931925769899,103.897368742078,348.62464121481486
JALAN MUTIARA,1.2963025208331982,103.82779412461208,GREAT WORLD MRT STATION (TE15),1.29394816169384,103.833720837731,709.1077910349029
NASSIM HILL,1.3064122994722085,103.82313607291871,ORCHARD BOULEVARD MRT STATION (TE13),1.30242224836722,103.823868523249,448.6663922575951
JALAN RAJAWALI,1.343860883591067,103.76858987473013,BEAUTY WORLD MRT STATION (DT5),1.34122317558549,103.775794285083,853.1753586254943
RIDGEWOOD CLOSE,1.317407577680385,103.77772068838895,DOVER MRT STATION (EW22),1.31140529320963,103.778637841909,671.5048890193327
SUFFOLK WALK,1.3157142793356815,103.84385406556534,NOVENA MRT STATION (NS20),1.32044079120154,103.843825618748,522.643000954883
THOMSON ROAD,1.3270913316370994,103.84197857373098,NOVENA MRT STATION (NS20),1.32044079120154,103.843825618748,763.5715828596187
SHELFORD ROAD,1.326597305000099,103.8113329077512,TAN KAH KEE MRT STATION (DT8),1.32555623519898,103.807760304729,413.92413054835146
MARTIN PLACE,1.2941611303612557,103.83805825172496,GREAT WORLD MRT STATION (TE15),1.29394816169384,103.833720837731,483.29046643352154
KIM SENG WALK,1.295238545698663,103.83101238610922,GREAT WORLD MRT STATION (TE15),1.29394816169384,103.833720837731,333.49208207716305
ST. MARTIN'S DRIVE,1.306014859809138,103.82415036077016,ORCHARD BOULEVARD MRT STATION (TE13),1.30242224836722,103.823868523249,398.48883937444634
HILLVIEW AVENUE,1.3594378687593212,103.76293252876044,HILLVIEW MRT STATION (DT3),1.36234486803558,103.767418254007,593.7459819871007
NATHAN ROAD,1.29522123325095,103.82714960291368,GREAT WORLD MRT STATION (TE15),1.29394816169384,103.833720837731,744.7459825295383
SIXTH AVENUE,1.3229129324783429,103.79188506607848,SIXTH AVENUE MRT STATION (DT7),1.33085764536226,103.796906838288,1041.1895257106466
ROBIN DRIVE,1.3192322440625075,103.82806200229064,STEVENS MRT STATION (DT10),1.32006555750626,103.826024401924,244.77078823934602
JALAN MERLIMAU,1.3235715179182346,103.84113341597175,NOVENA MRT STATION (NS20),1.32044079120154,103.843825618748,457.8315992062915
ST. THOMAS WALK,1.2984103723914058,103.83589830313932,SOMERSET MRT STATION (NS23),1.30026416739006,103.839085753124,409.7008267706497
KIM TIAN ROAD,1.284776733735535,103.82845896349616,TIONG BAHRU MRT STATION (EW17),1.28610253615775,103.827445112419,184.99458845989454
ORANGE GROVE ROAD,1.3137810520144186,103.82501869017734,STEVENS MRT STATION (TE11),1.31933437435349,103.825566965234,617.0820134617483
EAST COAST ROAD,1.3091370825872402,103.90943264153614,MARINE TERRACE MRT STATION (TE27),1.30666510344814,103.9151067005,688.0909813246595
TAMPINES ROAD,1.3615309439303391,103.88940974911468,KOVAN MRT STATION (NE13),1.36017917065237,103.885064856353,506.11162848345305
LENGKONG TUJOH,1.3295168935379458,103.91486541837016,BEDOK NORTH MRT STATION (DT29),1.33474211664091,103.91797832995,673.6808137014791
SUNSET HEIGHTS,1.3283885825338564,103.76935103060488,CLEMENTI MRT STATION (EW23),1.31511625277378,103.765191452888,1538.8654101629074
KIM SENG ROAD,1.2910660304508477,103.83449888266536,HAVELOCK MRT STATION (TE16),1.28850523975311,103.833585838226,300.8395701781082
CARLISLE ROAD,1.3147758574306632,103.8466804642866,NOVENA MRT STATION (NS20),1.32044079120154,103.843825618748,702.367309798067
WEST COAST ROAD,1.2957631364318127,103.76612227974272,KENT RIDGE MRT STATION (CC24),1.29353349887123,103.784572738173,2068.123674068814
MEYER ROAD,1.2962024695119896,103.8929233864393,TANJONG KATONG MRT STATION (TE25),1.29931925769899,103.897368742078,602.9365333803568
GRANGE ROAD,1.3043775028426732,103.82265946147584,ORCHARD BOULEVARD MRT STATION (TE13),1.30242224836722,103.823868523249,254.65472402485332
FOO KIM LIN ROAD,1.3289971894107382,103.90686516877624,KAKI BUKIT MRT STATION (DT28),1.33496735995428,103.908459338046,683.5757860968463
FLORA DRIVE,1.3583423411285631,103.9644000165503,TAMPINES EAST MRT STATION (DT33),1.35619148271544,103.9546344625,1112.515082710551
MARINE PARADE ROAD,1.3040555987816933,103.90487712260254,MARINE PARADE MRT STATION (TE26),1.30261163483383,103.904983086812,160.10113751093417
ARDMORE PARK,1.310558048415899,103.82950876431674,ORCHARD MRT STATION (NS22),1.30398013681715,103.832245244375,788.5352951906393
SURREY ROAD,1.3153747560120934,103.84239986938532,NEWTON MRT STATION (DT11),1.31399286264569,103.837714613091,543.352201311032
BUKIT TIMAH ROAD,1.3337396353681803,103.78660898588792,KING ALBERT PARK MRT STATION (DT6),1.33566161262214,103.783399113441,415.66289734288137
UPPER CHANGI ROAD EAST,1.3449248541563923,103.96330062797448,UPPER CHANGI MRT STATION (DT34),1.34173977444995,103.961472788634,406.7156787243754
SHELFORD ROAD,1.326193125343767,103.81205601229212,TAN KAH KEE MRT STATION (DT8),1.32555623519898,103.807760304729,483.22806916419256
SCOTTS ROAD,1.3098089873401169,103.83491791380814,NEWTON MRT STATION (NS21),1.3123189224097,103.837984594021,439.8939048163907
CUSCADEN ROAD,1.3049000874845669,103.8268499350528,ORCHARD BOULEVARD MRT STATION (TE13),1.30242224836722,103.823868523249,430.30517752596324
PASIR PANJANG ROAD,1.2905469205790892,103.77460603766109,KENT RIDGE MRT STATION (CC24),1.29353349887123,103.784572738173,1157.325333678574
THOMSON ROAD,1.3180587266698658,103.8446820513569,NOVENA MRT STATION (NS20),1.32044079120154,103.843825618748,280.1110130174137
PATERSON ROAD,1.3010978804758768,103.83056321921612,ORCHARD MRT STATION (TE14),1.30304426265194,103.831375000068,233.41391222107492
CAIRNHILL ROAD,1.3088308755123943,103.83713024718148,NEWTON MRT STATION (NS21),1.3123189224097,103.837984594021,397.2371394463335
BALMORAL ROAD,1.3148900924938518,103.83292814168634,NEWTON MRT STATION (DT11),1.31399286264569,103.837714613091,541.8483636579695
KENG CHIN ROAD,1.3172475748171626,103.8299725999947,STEVENS MRT STATION (DT10),1.32006555750626,103.826024401924,538.6668742696506
TANJONG RHU ROAD,1.2984373006288634,103.88440802105823,KATONG PARK MRT STATION (TE24),1.29783147778951,103.886178949925,208.1621089353201
OXLEY WALK,1.2967052650608446,103.84190257105504,SOMERSET MRT STATION (NS23),1.30026416739006,103.839085753124,503.12616316380087
FLORA DRIVE,1.359296979607128,103.96440792459887,TAMPINES EAST MRT STATION (DT33),1.35619148271544,103.9546344625,1140.594793281399
SIXTH AVENUE,1.327330894698637,103.792736864926,SIXTH AVENUE MRT STATION (DT7),1.33085764536226,103.796906838288,606.1704542974268
BUKIT TIMAH ROAD,1.3332359548709674,103.78527471772183,KING ALBERT PARK MRT STATION (DT6),1.33566161262214,103.783399113441,339.86860664554644
MARYMOUNT TERRACE,1.3510425976381049,103.84082249722938,MARYMOUNT MRT STATION (CC16),1.348707263451,103.839423132332,301.5548945657997
POH HUAT ROAD WEST,1.3668068908800544,103.87625687006503,KOVAN MRT STATION (NE13),1.36017917065237,103.885064856353,1223.8973590262326
MINBU ROAD,1.3237827351345697,103.85010205256792,NOVENA MRT STATION (NS20),1.32044079120154,103.843825618748,790.2309225008522
LORONG M TELOK KURAU,1.3106174389053142,103.91438771546682,MARINE TERRACE MRT STATION (TE27),1.30666510344814,103.9151067005,444.2941458584548
MOUNTBATTEN ROAD,1.302969307078749,103.89912589819234,TANJONG KATONG MRT STATION (TE25),1.29931925769899,103.897368742078,448.4843075616561
MACPHERSON ROAD,1.3325184684710756,103.88622884518853,TAI SENG MRT STATION (CC11),1.33514150139202,103.888389300191,376.7408975515875
MEYER ROAD,1.2976811059953102,103.88972928729052,KATONG PARK MRT STATION (TE24),1.29783147778951,103.886178949925,395.47092937240745
MANGIS ROAD,1.3133229718786543,103.90436040239356,EUNOS MRT STATION (EW7),1.31978354916088,103.903225807255,725.451514160248
PASIR PANJANG ROAD,1.2907252914609593,103.7721144547857,HAW PAR VILLA MRT STATION (CC25),1.28257135772488,103.781752725064,1401.2554621227227
MEYER ROAD,1.2973213075765722,103.88801119388084,KATONG PARK MRT STATION (TE24),1.29783147778951,103.886178949925,211.57189027382398
ST. PATRICK'S ROAD,1.3073937730961285,103.91605996975464,MARINE TERRACE MRT STATION (TE27),1.30666510344814,103.9151067005,133.21810653679606
LENGKONG TIGA,1.3284750503694474,103.91245575476654,KEMBANGAN MRT STATION (EW6),1.3210381335934,103.912947930851,824.1590814932431
JOO CHIAT ROAD,1.3045088314796467,103.9054509230918,MARINE PARADE MRT STATION (TE26),1.30261163483383,103.904983086812,216.14698496307233
KIM YAM ROAD,1.2934496158287156,103.83888891575558,GREAT WORLD MRT STATION (TE15),1.29394816169384,103.833720837731,577.7979262104275
MEI HWAN DRIVE,1.352875440966724,103.86229121689082,LORONG CHUAN MRT STATION (CC14),1.35161217074555,103.864151938651,249.7862996003678
CAIRNHILL ROAD,1.3047684115971403,103.83790095199149,SOMERSET MRT STATION (NS23),1.30026416739006,103.839085753124,515.2148435652624
WALSHE ROAD,1.312461730868946,103.82730294808748,STEVENS MRT STATION (TE11),1.31933437435349,103.825566965234,784.1152675734741
TANJONG RHU ROAD,1.2967320872912882,103.87063419753756,TANJONG RHU MRT STATION (TE23),1.29726507940646,103.873453254621,319.2237547546689
NEWTON ROAD,1.3140498537608185,103.83945280517106,NEWTON MRT STATION (DT11),1.31399286264569,103.837714613091,193.54673345945582
CARPMAEL ROAD,1.3125648122310258,103.89798649539732,PAYA LEBAR MRT STATION (CC9),1.3172473854035,103.892260753884,821.0607936337245
FARRER ROAD,1.3135323352883317,103.80499673505098,FARRER ROAD MRT STATION (CC20),1.31743915158967,103.807379214161,506.87593205466146
BUKIT TIMAH ROAD,1.3182810789992654,103.82938252045555,STEVENS MRT STATION (DT10),1.32006555750626,103.826024401924,422.6173523507498
MOUNT FABER ROAD,1.268900320136196,103.82463553922562,HARBOURFRONT MRT STATION (NE1 / CC29),1.26538938374901,103.821530157095,519.7681167477751
JALAN DAUD,1.3263529465201742,103.90890023813304,KEMBANGAN MRT STATION (EW6),1.3210381335934,103.912947930851,740.4697645181693
HAIG ROAD,1.30634911314462,103.89780793266507,TANJONG KATONG MRT STATION (TE25),1.29931925769899,103.897368742078,778.8608996484422
UPPER EAST COAST ROAD,1.313655691163044,103.9390907154923,BAYSHORE MRT STATION (TE29),1.31312248291264,103.942309776767,363.0706242396098
GRANGE ROAD,1.2987808922794035,103.82667748385737,ORCHARD BOULEVARD MRT STATION (TE13),1.30242224836722,103.823868523249,509.7520912668578
LIM TUA TOW ROAD,1.354116195521054,103.87617971349796,SERANGOON MRT STATION (CC13),1.35063361526525,103.872771660431,540.50250439623
WOODLEIGH CLOSE,1.3363502045078486,103.86906978006188,WOODLEIGH MRT STATION (NE11),1.33919004519388,103.87081830915,369.4209146474585
BALMORAL ROAD,1.3138786395422408,103.82977333020588,STEVENS MRT STATION (TE11),1.31933437435349,103.825566965234,763.5932751464094
THOMSON LANE,1.3316588951527966,103.8417091672058,CALDECOTT MRT STATION (TE9),1.33724561271722,103.840161782075,641.3043943326984
BALMORAL ROAD,1.3160274772910294,103.83158982838803,NEWTON MRT STATION (DT11),1.31399286264569,103.837714613091,717.7977413263819
MEYER ROAD,1.2981459966065472,103.8974908759434,TANJONG KATONG MRT STATION (TE25),1.29931925769899,103.897368742078,130.44335596794102
HUME AVENUE,1.3572857581591842,103.76511051117724,HUME MRT STATION (DT4),1.3545953239503,103.769118851887,536.1835578508793
HILLVIEW AVENUE,1.3625569067309613,103.7652338091204,HILLVIEW MRT STATION (DT3),1.36234486803558,103.767418254007,244.23119242234762
CLAYMORE ROAD,1.3084601729615255,103.83064226371,ORCHARD MRT STATION (NS22),1.30398013681715,103.832245244375,526.5226996885134
TOMLINSON ROAD,1.3029340769609865,103.82694960330576,ORCHARD BOULEVARD MRT STATION (TE13),1.30242224836722,103.823868523249,347.5353936850399
ST. MARTIN'S DRIVE,1.3063778552211356,103.82402020204914,ORCHARD BOULEVARD MRT STATION (TE13),1.30242224836722,103.823868523249,437.7162625275203
CAIRNHILL CIRCLE,1.3064483293739704,103.83841307855008,NEWTON MRT STATION (NS21),1.3123189224097,103.837984594021,650.8891588755599
WEST COAST PARK,1.3190176730590386,103.75538870759289,CLEMENTI MRT STATION (EW23),1.31511625277378,103.765191452888,1173.1495222005385
FARRER DRIVE,1.3117972095376274,103.80682721132716,FARRER ROAD MRT STATION (CC20),1.31743915158967,103.807379214161,626.8744270589253
HOLLAND ROAD,1.3128973523382208,103.7948899332995,HOLLAND VILLAGE MRT STATION (CC21),1.31224029631595,103.796399122407,182.99895164955535
JALAN TUA KONG,1.318379925362051,103.92460708789528,BEDOK MRT STATION (EW5),1.32397996868158,103.929984495066,861.1535292743613
THOMSON ROAD,1.3411028334225763,103.83874107594586,CALDECOTT MRT STATION (CC17),1.33767337407828,103.839530785576,389.26312169474596
RIVIERA DRIVE,1.316206233114233,103.94218749633218,BAYSHORE MRT STATION (TE29),1.31312248291264,103.942309776767,341.2573187365389
JALAN HAJIJAH,1.3127665354587357,103.93597771140128,BAYSHORE MRT STATION (TE29),1.31312248291264,103.942309776767,705.7979605513337
BALMORAL PARK,1.314785750760218,103.8270624968448,STEVENS MRT STATION (TE11),1.31933437435349,103.825566965234,529.7866220854349
FARRER ROAD,1.3116549264436952,103.80487571992045,FARRER ROAD MRT STATION (CC20),1.31743915158967,103.807379214161,697.639998750432
LENGKONG EMPAT,1.327687951929765,103.91184482503115,KEMBANGAN MRT STATION (EW6),1.3210381335934,103.912947930851,745.4813245012637
ENG KONG CRESCENT,1.335783928855882,103.76985853406036,BEAUTY WORLD MRT STATION (DT5),1.34122317558549,103.775794285083,893.3696385840468
UPPER EAST COAST ROAD,1.3137118634270666,103.938714040634,BAYSHORE MRT STATION (TE29),1.31312248291264,103.942309776767,405.4437907691298
LORONG 1 TOA PAYOH,1.3305089313159628,103.84367307184002,TOA PAYOH MRT STATION (NS19),1.33262928096888,103.847502198048,486.38186964212736
SHELFORD ROAD,1.3255880586586544,103.81164692752829,TAN KAH KEE MRT STATION (DT8),1.32555623519898,103.807760304729,432.5562103007438
BEDOK ROAD,1.3215119258721364,103.95443640619116,TANAH MERAH MRT STATION (EW4),1.32718729074675,103.946348600798,1097.2657707176427
BALMORAL PARK,1.3163239569650165,103.82815232579058,STEVENS MRT STATION (TE11),1.31933437435349,103.825566965234,439.9916708011835
KAMPONG EUNOS,1.318463906528491,103.90607679570388,EUNOS MRT STATION (EW7),1.31978354916088,103.903225807255,349.2330124333603
ARDMORE PARK,1.310423987129363,103.8279134032356,ORCHARD MRT STATION (NS22),1.30398013681715,103.832245244375,860.2965791014483
JERVOIS ROAD,1.2941930917743194,103.82324723262764,REDHILL MRT STATION (EW18),1.28963453412887,103.81674097205,882.2617071961581
LORONG G TELOK KURAU,1.317435353130028,103.9108380164418,KEMBANGAN MRT STATION (EW6),1.3210381335934,103.912947930851,462.43014465811564
GRANGE GARDEN,1.301471463412473,103.82424348015874,ORCHARD BOULEVARD MRT STATION (TE13),1.30242224836722,103.823868523249,113.1117270716099
BALMORAL ROAD,1.314516927431839,103.8322068622233,NEWTON MRT STATION (DT11),1.31399286264569,103.837714613091,615.6928986892844
PASIR PANJANG ROAD,1.280515146718145,103.78544338318171,HAW PAR VILLA MRT STATION (CC25),1.28257135772488,103.781752725064,469.47047601708744
BUTTERWORTH LANE,1.3121223773107136,103.89466356944666,PAYA LEBAR MRT STATION (CC9),1.3172473854035,103.892260753884,626.6212859293151
UPPER CHANGI ROAD EAST,1.3429153294865572,103.96249141985004,UPPER CHANGI MRT STATION (DT34),1.34173977444995,103.961472788634,172.47554685471027
ARDMORE PARK,1.3098017857996542,103.8275401838324,ORCHARD MRT STATION (NS22),1.30398013681715,103.832245244375,829.8034028280945
MEYER ROAD,1.2968807034154957,103.89050413805342,KATONG PARK MRT STATION (TE24),1.29783147778951,103.886178949925,492.7024234757555
GRANGE ROAD,1.2985048225076354,103.82556622757716,ORCHARD BOULEVARD MRT STATION (TE13),1.30242224836722,103.823868523249,472.581441419718
PARBURY AVENUE,1.317904652682706,103.94302511713371,BAYSHORE MRT STATION (TE29),1.31312248291264,103.942309776767,534.7479487537714
CORNWALL GARDENS,1.312451113417911,103.80066360523676,HOLLAND VILLAGE MRT STATION (CC21),1.31224029631595,103.796399122407,475.16860642203034
MEYER ROAD,1.29741052328477,103.88751087732392,KATONG PARK MRT STATION (TE24),1.29783147778951,103.886178949925,155.36821585743428
LEEDON HEIGHTS,1.3138292114811216,103.8014524210563,HOLLAND VILLAGE MRT STATION (CC21),1.31224029631595,103.796399122407,589.1894413524149
STEVENS ROAD,1.3203051786319746,103.82480838423956,STEVENS MRT STATION (TE11),1.31933437435349,103.825566965234,136.56667766629144
BIDEFORD ROAD,1.3049627894505669,103.83640790393764,ORCHARD MRT STATION (NS22),1.30398013681715,103.832245244375,475.8377065390119
DUCHESS AVENUE,1.3236648028140303,103.7999850602548,SIXTH AVENUE MRT STATION (DT7),1.33085764536226,103.796906838288,865.9882387911092
PECK HAY ROAD,1.3091434558873418,103.83757966114396,NEWTON MRT STATION (NS21),1.3123189224097,103.837984594021,354.0068817435452
LEICESTER ROAD,1.329430695647404,103.86735725186348,POTONG PASIR MRT STATION (NE10),1.33137949021368,103.869055656782,286.63850955311113
HUME AVENUE,1.3555594537780145,103.76770978283687,HUME MRT STATION (DT4),1.3545953239503,103.769118851887,189.6202367503795
MERGUI ROAD,1.318021993894872,103.85159370665656,FARRER PARK MRT STATION (NE8),1.31190557325774,103.853477716509,708.0779638190962
MARINE PARADE,1.3037809737147672,103.90546598293574,MARINE PARADE MRT STATION (TE26),1.30261163483383,103.904983086812,140.02349958858483
YIO CHU KANG ROAD,1.3573731881197786,103.87625894291114,SERANGOON MRT STATION (CC13),1.35063361526525,103.872771660431,840.2274088848312
WEST COAST ROAD,1.2938062757003783,103.76786573438729,KENT RIDGE MRT STATION (CC24),1.29353349887123,103.784572738173,1859.5898436171547
HULLET ROAD,1.304220706553663,103.83838947618209,SOMERSET MRT STATION (NS23),1.30026416739006,103.839085753124,444.30322018638265
AMBER ROAD,1.3018891012495986,103.9014429575936,MARINE PARADE MRT STATION (TE26),1.30261163483383,103.904983086812,402.0036206101535
LORONG PUNTONG,1.3605612937927547,103.83132264787304,BRIGHT HILL MRT STATION (TE7),1.36328318545185,103.832893619992,348.06677466089127
KING ALBERT PARK,1.3365735175763256,103.78029725594838,KING ALBERT PARK MRT STATION (DT6),1.33566161262214,103.783399113441,359.6294172675647
JALAN BUNGA RAMPAI,1.3387825629331174,103.88302640874568,BARTLEY MRT STATION (CC12),1.34250117805245,103.880177899184,519.1993728486224
QUEENSWAY,1.3084409034783064,103.80192943833792,HOLLAND VILLAGE MRT STATION (CC21),1.31224029631595,103.796399122407,745.1876233909893
UPPER BUKIT TIMAH ROAD,1.3527409861541675,103.7676268398196,HUME MRT STATION (DT4),1.3545953239503,103.769118851887,263.843534932891
HILLVIEW AVENUE,1.364863996566337,103.76605122378092,HILLVIEW MRT STATION (DT3),1.36234486803558,103.767418254007,317.390013344166
BALMORAL PARK,1.3154679822374775,103.83008177347904,STEVENS MRT STATION (TE11),1.31933437435349,103.825566965234,659.7260904260465
KIM SENG ROAD,1.2956513188980514,103.83223684890255,GREAT WORLD MRT STATION (TE15),1.29394816169384,103.833720837731,250.48548572414964
HILLVIEW AVENUE,1.3610177129584995,103.76557431654288,HILLVIEW MRT STATION (DT3),1.36234486803558,103.767418254007,252.28204973355977
MEYER ROAD,1.2966818551679753,103.88910011306984,KATONG PARK MRT STATION (TE24),1.29783147778951,103.886178949925,349.0690347916057
YIO CHU KANG ROAD,1.3843817479001912,103.8357467301352,LENTOR MRT STATION (TE5),1.38550657972169,103.835743809669,124.37861842519014
JALAN DATOH,1.3286065657817034,103.84328339511946,TOA PAYOH MRT STATION (NS19),1.33262928096888,103.847502198048,646.7580198356758
HUME AVENUE,1.3567163573703604,103.76701130616546,HUME MRT STATION (DT4),1.3545953239503,103.769118851887,331.68897527109254
LORONG PUNTONG,1.3600261697301763,103.8311116820121,BRIGHT HILL MRT STATION (TE7),1.36328318545185,103.832893619992,411.13284753105245
BALMORAL CRESCENT,1.315860768362796,103.8354973643611,NEWTON MRT STATION (DT11),1.31399286264569,103.837714613091,321.7917162981738
TANAH MERAH KECHIL ROAD SOUTH,1.32188028968118,103.94711466169848,TANAH MERAH MRT STATION (EW4),1.32718729074675,103.946348600798,592.9828032780492
DUNEARN ROAD,1.3376843983390565,103.7801479546432,KING ALBERT PARK MRT STATION (DT6),1.33566161262214,103.783399113441,425.3721438807277
LORONG SARHAD,1.2805532898161704,103.78930185588784,PASIR PANJANG MRT STATION (CC26),1.27621352233766,103.791350313288,531.2700886614389
MOUNT SINAI DRIVE,1.3166827654015436,103.7773288711038,DOVER MRT STATION (EW22),1.31140529320963,103.778637841909,601.4641451105085
HOLLAND ROAD,1.3115726396093594,103.80257680551212,HOLLAND VILLAGE MRT STATION (CC21),1.31224029631595,103.796399122407,691.4699839900891
ANGKLONG LANE,1.363271365213048,103.83032831543214,BRIGHT HILL MRT STATION (TE7),1.36328318545185,103.832893619992,285.49109836774124
RIVER VALLEY ROAD,1.2963242559401995,103.84145161369044,SOMERSET MRT STATION (NS23),1.30026416739006,103.839085753124,509.0401344920251
DERBYSHIRE ROAD,1.315681725532261,103.8458804173752,NOVENA MRT STATION (NS20),1.32044079120154,103.843825618748,573.7728778517144
FIFTH AVENUE,1.3299055751248463,103.79582246193668,SIXTH AVENUE MRT STATION (DT7),1.33085764536226,103.796906838288,160.14519942650963
HOLLAND HILL,1.3088776917542484,103.80046884228952,HOLLAND VILLAGE MRT STATION (CC21),1.31224029631595,103.796399122407,585.9929196176495
JERVOIS CLOSE,1.2929118875500625,103.8250716320948,TIONG BAHRU MRT STATION (EW17),1.28610253615775,103.827445112419,797.9331494322716
HOLT ROAD,1.2945119363883557,103.82675823557145,GREAT WORLD MRT STATION (TE15),1.29394816169384,103.833720837731,777.3804939550826
FORT ROAD,1.2991385727918996,103.8848759858902,KATONG PARK MRT STATION (TE24),1.29783147778951,103.886178949925,204.7361480621111
GILSTEAD ROAD,1.3185981464280447,103.83982234525706,NOVENA MRT STATION (NS20),1.32044079120154,103.843825618748,489.90474405857657
HILLVIEW AVENUE,1.3531550971131354,103.76067985584686,HUME MRT STATION (DT4),1.3545953239503,103.769118851887,952.5714008635081
ST. PATRICK'S ROAD,1.3068861493932342,103.9137171674505,MARINE TERRACE MRT STATION (TE27),1.30666510344814,103.9151067005,156.56200560922306
UPPER EAST COAST ROAD,1.3167080372675124,103.94078178768852,BAYSHORE MRT STATION (TE29),1.31312248291264,103.942309776767,431.4023824996318
NASSIM ROAD,1.3076792535528072,103.8241711671104,ORCHARD BOULEVARD MRT STATION (TE13),1.30242224836722,103.823868523249,582.2675520157208
LINCOLN ROAD,1.3152126786382952,103.84354757376089,NOVENA MRT STATION (NS20),1.32044079120154,103.843825618748,578.925405785385
BALMORAL PARK,1.3149235655351357,103.82861201569928,STEVENS MRT STATION (TE11),1.31933437435349,103.825566965234,593.9006445781098
PAYA LEBAR ROAD,1.3304971466981648,103.888409268738,MACPHERSON MRT STATION (DT26),1.32615024457361,103.889298600376,490.7425398799199
NAPIER ROAD,1.306910370831745,103.82068269952032,NAPIER MRT STATION (TE12),1.30678223364785,103.818956796815,192.5988533778088
SUNSET WAY,1.324029572386451,103.76629837541128,CLEMENTI MRT STATION (EW23),1.31511625277378,103.765191452888,993.2587530709764
EAST COAST ROAD,1.309837284262665,103.91488201512036,MARINE TERRACE MRT STATION (TE27),1.30666510344814,103.9151067005,351.65395996950554
NASSIM ROAD,1.3066334987129389,103.8259449545968,ORCHARD BOULEVARD MRT STATION (TE13),1.30242224836722,103.823868523249,519.8454495413357
EWE BOON ROAD,1.3172583802986624,103.83103894855346,STEVENS MRT STATION (DT10),1.32006555750626,103.826024401924,638.5861118465087
LENTOR LOOP,1.392387454707658,103.8355452314108,LENTOR MRT STATION (TE5),1.38550657972169,103.835743809669,761.1731290910168
IPOH LANE,1.3122448300897191,103.89602075271728,PAYA LEBAR MRT STATION (CC9),1.3172473854035,103.892260753884,693.6028245284414
ANG MO KIO AVENUE 1,1.355633252161094,103.85881743866784,LORONG CHUAN MRT STATION (CC14),1.35161217074555,103.864151938651,741.7140226701965
CLAYMORE ROAD,1.3091282955155026,103.83160844919902,ORCHARD MRT STATION (NS22),1.30398013681715,103.832245244375,573.6513593501503
NEWTON ROAD,1.314914617451499,103.83968771618254,NEWTON MRT STATION (DT11),1.31399286264569,103.837714613091,242.0886504846306
FERNWOOD TERRACE,1.309446279750008,103.9250257563184,SIGLAP MRT STATION (TE28),1.31000869432289,103.930025826708,559.9258757290246
WATTEN ESTATE ROAD,1.3304753767055917,103.80955800089453,TAN KAH KEE MRT STATION (DT8),1.32555623519898,103.807760304729,579.559961959936
UPPER EAST COAST ROAD,1.313679411367598,103.93463486996842,SIGLAP MRT STATION (TE28),1.31000869432289,103.930025826708,654.1081437820965
SERANGOON AVENUE 3,1.3496812248797618,103.86644536984711,LORONG CHUAN MRT STATION (CC14),1.35161217074555,103.864151938651,332.76459019906616
BALMORAL ROAD,1.3171149855412625,103.83435097157091,NEWTON MRT STATION (DT11),1.31399286264569,103.837714613091,509.22847186493334
JALAN LIMAU BALI,1.3225945442859892,103.94833633001988,TANAH MERAH MRT STATION (EW4),1.32718729074675,103.946348600798,553.9321323728874
JALAN TUA KONG,1.3133888629163528,103.92635776293648,SIGLAP MRT STATION (TE28),1.31000869432289,103.930025826708,553.4824030046243
KAMPONG EUNOS,1.3189368097492549,103.90627893938446,EUNOS MRT STATION (EW7),1.31978354916088,103.903225807255,352.4476095014268
NASSIM ROAD,1.3086903152453342,103.82394249180076,NAPIER MRT STATION (TE12),1.30678223364785,103.818956796815,593.6213062367069
CHERRY AVENUE,1.331725212100125,103.79299075162004,SIXTH AVENUE MRT STATION (DT7),1.33085764536226,103.796906838288,446.2531100467291
FORD AVENUE,1.3137207665744668,103.79387769984037,HOLLAND VILLAGE MRT STATION (CC21),1.31224029631595,103.796399122407,324.8703996222759
HOLLAND HILL,1.3098480860109671,103.80220212361203,HOLLAND VILLAGE MRT STATION (CC21),1.31224029631595,103.796399122407,697.8914686233664
MARTIA ROAD,1.3066666543761287,103.9113984642527,MARINE TERRACE MRT STATION (TE27),1.30666510344814,103.9151067005,412.6927858033625
PASIR PANJANG ROAD,1.2908707415753091,103.7700665634482,HAW PAR VILLA MRT STATION (CC25),1.28257135772488,103.781752725064,1591.7500361184368
OXLEY ROAD,1.296748363996314,103.8414998338699,SOMERSET MRT STATION (NS23),1.30026416739006,103.839085753124,472.56231576310523
SCOTTS ROAD,1.3123651771250782,103.83672249545704,NEWTON MRT STATION (NS21),1.3123189224097,103.837984594021,140.5526534175022
PATERSON ROAD,1.3000875426144385,103.83007092060728,ORCHARD MRT STATION (TE14),1.30304426265194,103.831375000068,357.704343693687
MARYMOUNT TERRACE,1.351665191647007,103.84155399400052,MARYMOUNT MRT STATION (CC16),1.348707263451,103.839423132332,403.9954762178096
TANGLIN HILL,1.3009674167470626,103.81753102816744,NAPIER MRT STATION (TE12),1.30678223364785,103.818956796815,662.2623664750861
YIO CHU KANG ROAD,1.3816207211577556,103.83621963961116,LENTOR MRT STATION (TE5),1.38550657972169,103.835743809669,432.92924350070234
TANGLIN RISE,1.3016570035278214,103.81788891978654,NAPIER MRT STATION (TE12),1.30678223364785,103.818956796815,579.0487588537032
PATERSON HILL,1.30030548061848,103.82895249825202,ORCHARD MRT STATION (TE14),1.30304426265194,103.831375000068,405.46004231997966
LEEDON ROAD,1.3133286779042277,103.79741797055578,HOLLAND VILLAGE MRT STATION (CC21),1.31224029631595,103.796399122407,165.34939927829907
KIM SENG ROAD,1.2929339196350709,103.83359003812596,GREAT WORLD MRT STATION (TE15),1.29394816169384,103.833720837731,113.09043854683007
LENGKONG EMPAT,1.3289934466263629,103.91347731738936,BEDOK NORTH MRT STATION (DT29),1.33474211664091,103.91797832995,809.3082612436602
SHELFORD ROAD,1.3266013543696693,103.81265485033084,TAN KAH KEE MRT STATION (DT8),1.32555623519898,103.807760304729,556.8372582480931
WOOLLERTON PARK,1.31529463123951,103.80806994078864,FARRER ROAD MRT STATION (CC20),1.31743915158967,103.807379214161,249.27865387663698
JALAN ULU SEMBAWANG,1.437089818671596,103.82484610622994,CANBERRA MRT STATION (NS12),1.44307664075699,103.829702590959,854.5890865428512
JALAN REMAJA,1.3577310754158536,103.76172181891128,HILLVIEW MRT STATION (DT3),1.36234486803558,103.767418254007,813.7337414674166
JALAN RAMA RAMA,1.3283934735304963,103.84924168947973,TOA PAYOH MRT STATION (NS19),1.33262928096888,103.847502198048,506.80390979802496
EWE BOON ROAD,1.3157367865056713,103.83090871294075,STEVENS MRT STATION (TE11),1.31933437435349,103.825566965234,715.3033268293796
ONAN ROAD,1.3058747690451344,103.90390115609942,MARINE PARADE MRT STATION (TE26),1.30261163483383,103.904983086812,380.3814371575474
CORONATION ROAD WEST,1.319764793066907,103.79525287587342,HOLLAND VILLAGE MRT STATION (CC21),1.31224029631595,103.796399122407,841.7428454479165
SIN MING AVENUE,1.3609906048215512,103.82897435585608,BRIGHT HILL MRT STATION (TE7),1.36328318545185,103.832893619992,504.48562928636505
BUKIT BATOK EAST AVENUE 6,1.346217216107747,103.76557345231116,HUME MRT STATION (DT4),1.3545953239503,103.769118851887,1006.9329385877942
BALMEG HILL,1.28245747065198,103.78383561134912,HAW PAR VILLA MRT STATION (CC25),1.28257135772488,103.781752725064,232.1500430701511
FARRER DRIVE,1.313866543546579,103.80645724659048,FARRER ROAD MRT STATION (CC20),1.31743915158967,103.807379214161,408.1484414489738
DEVONSHIRE ROAD,1.2971928554134224,103.83747092997382,SOMERSET MRT STATION (NS23),1.30026416739006,103.839085753124,384.22972773003073
PASIR PANJANG HILL,1.2816263210663923,103.78486945242656,HAW PAR VILLA MRT STATION (CC25),1.28257135772488,103.781752725064,362.2650376778367
EAST COAST ROAD,1.3082725775863593,103.91900309757196,MARINE TERRACE MRT STATION (TE27),1.30666510344814,103.9151067005,468.64865848924035
PASIR PANJANG ROAD,1.2914488269703326,103.7685851939768,HAW PAR VILLA MRT STATION (CC25),1.28257135772488,103.781752725064,1763.8286888856053
LORONG K TELOK KURAU,1.312083721716034,103.9086431156022,MARINE TERRACE MRT STATION (TE27),1.30666510344814,103.9151067005,936.1851702949655
BUKIT TIMAH ROAD,1.3184777887426424,103.8299505850898,STEVENS MRT STATION (DT10),1.32006555750626,103.826024401924,470.8984695566637
PASIR PANJANG ROAD,1.2910203128569078,103.77405714193232,KENT RIDGE MRT STATION (CC24),1.29353349887123,103.784572738173,1202.8373063404194
ARDMORE PARK,1.3084361638238005,103.82859684221674,ORCHARD MRT STATION (NS22),1.30398013681715,103.832245244375,638.4673978368584
DEVONSHIRE ROAD,1.2993880985091957,103.83695908882164,SOMERSET MRT STATION (NS23),1.30026416739006,103.839085753124,255.73584512519432
GRANGE ROAD,1.3008616618259634,103.82414716637145,ORCHARD BOULEVARD MRT STATION (TE13),1.30242224836722,103.823868523249,175.3258749443343
PEPYS ROAD,1.2804724501641676,103.7932264339511,PASIR PANJANG MRT STATION (CC26),1.27621352233766,103.791350313288,515.1423681396411
MOUNT SINAI RISE,1.3150328756386385,103.77725704205652,DOVER MRT STATION (EW22),1.31140529320963,103.778637841909,429.54787523323057
UPPER CHANGI ROAD EAST,1.3453742275330882,103.96384456990968,UPPER CHANGI MRT STATION (DT34),1.34173977444995,103.961472788634,480.8112867825204
HUME AVENUE,1.35365737092128,103.76794817948895,HUME MRT STATION (DT4),1.3545953239503,103.769118851887,166.5237901475199
RIVER VALLEY CLOSE,1.2951063977269168,103.83790858680408,GREAT WORLD MRT STATION (TE15),1.29394816169384,103.833720837731,483.33654591341667
LEONIE HILL ROAD,1.2981244455442262,103.83406644937916,GREAT WORLD MRT STATION (TE15),1.29394816169384,103.833720837731,463.3910168951165
BALMORAL PARK,1.3149898777426918,103.82929382020788,STEVENS MRT STATION (TE11),1.31933437435349,103.825566965234,634.6689642224551
CUSCADEN WALK,1.3030827129334532,103.8290269096097,ORCHARD MRT STATION (TE14),1.30304426265194,103.831375000068,261.3556748305264
DALVEY ROAD,1.3162627141963044,103.8251896181344,STEVENS MRT STATION (TE11),1.31933437435349,103.825566965234,342.2347485704732
KHIANG GUAN AVENUE,1.317108640034879,103.84274308712008,NOVENA MRT STATION (NS20),1.32044079120154,103.843825618748,387.648378324522
TREVOSE CRESCENT,1.3246884426148469,103.82574416015764,STEVENS MRT STATION (DT10),1.32006555750626,103.826024401924,512.1254617204169
FARRER ROAD,1.3147965797587762,103.80755261397388,FARRER ROAD MRT STATION (CC20),1.31743915158967,103.807379214161,292.8385849801408
MOUNT SINAI RISE,1.3144427739141609,103.77785771037104,DOVER MRT STATION (EW22),1.31140529320963,103.778637841909,346.90923530792134
UPPER EAST COAST ROAD,1.3201018230532593,103.95492261889515,TANAH MERAH MRT STATION (EW4),1.32718729074675,103.946348600798,1234.6420895046947
UPPER EAST COAST ROAD,1.3157814810258006,103.94142451600275,BAYSHORE MRT STATION (TE29),1.31312248291264,103.942309776767,310.08631891038874
BUKIT TIMAH ROAD,1.334379834683607,103.78320097748129,KING ALBERT PARK MRT STATION (DT6),1.33566161262214,103.783399113441,143.4375212878161
MARGOLIOUTH ROAD,1.3204844148484611,103.82435087440292,STEVENS MRT STATION (TE11),1.31933437435349,103.825566965234,185.70867052606056
BUCKLEY ROAD,1.3179599892588336,103.8403281232722,NOVENA MRT STATION (NS20),1.32044079120154,103.843825618748,476.1866598119493
BOON TECK ROAD,1.327718504889425,103.85032777186149,TOA PAYOH MRT STATION (NS19),1.33262928096888,103.847502198048,627.4882954376352
GRANGE ROAD,1.2994228130373806,103.83477676775544,SOMERSET MRT STATION (NS23),1.30026416739006,103.839085753124,488.49223483934367
ST. THOMAS WALK,1.2967418593410616,103.83688372399918,SOMERSET MRT STATION (NS23),1.30026416739006,103.839085753124,460.1642040677286
HEMMANT ROAD,1.3116774246795515,103.89052388834035,DAKOTA MRT STATION (CC8),1.30854798388121,103.889064718377,382.2475552155473
NIM ROAD,1.3810533872767183,103.86380542082298,ANG MO KIO MRT STATION (NS16),1.36993284962262,103.84955809232,2006.4942656619985
MEYER ROAD,1.2962567351572143,103.89164615525355,KATONG PARK MRT STATION (TE24),1.29783147778951,103.886178949925,632.8775053096055
CLUNY PARK ROAD,1.321936081529253,103.8138708689286,BOTANIC GARDENS MRT STATION (CC19),1.32211373558877,103.814984510627,125.4843932487059
HOLLAND HILL,1.3090945870594226,103.80217303971732,HOLLAND VILLAGE MRT STATION (CC21),1.31224029631595,103.796399122407,730.6863768648029
ELIZABETH DRIVE,1.359921035152696,103.76339212786156,HILLVIEW MRT STATION (DT3),1.36234486803558,103.767418254007,522.1023442095895
PASIR PANJANG HILL,1.2819371751255195,103.78396972782951,HAW PAR VILLA MRT STATION (CC25),1.28257135772488,103.781752725064,256.50593937288494
ORANGE GROVE ROAD,1.3091334754306905,103.82772605806908,ORCHARD MRT STATION (NS22),1.30398013681715,103.832245244375,760.0382268951964
HIGHLAND ROAD,1.3594253810959056,103.8799864049812,KOVAN MRT STATION (NE13),1.36017917065237,103.885064856353,571.2857706163011
JALAN MAT JAMBOL,1.2794076452222365,103.79365746647711,PASIR PANJANG MRT STATION (CC26),1.27621352233766,103.791350313288,436.6607640386727
ONTARIO AVENUE,1.3567494293713709,103.82746954811044,UPPER THOMSON MRT STATION (TE8),1.35441643365401,103.832898468504,656.9462206887843
PEMIMPIN DRIVE,1.352821527273847,103.84091679089389,MARYMOUNT MRT STATION (CC16),1.348707263451,103.839423132332,484.35189392372956
ARDMORE PARK,1.308972464441298,103.83015228797808,ORCHARD MRT STATION (NS22),1.30398013681715,103.832245244375,599.155593157685
ST. THOMAS WALK,1.2961434797928837,103.83629245403782,GREAT WORLD MRT STATION (TE15),1.29394816169384,103.833720837731,375.2806935391195
SOUTH BUONA VISTA ROAD,1.2811586078585222,103.7877599736322,PASIR PANJANG MRT STATION (CC26),1.27621352233766,103.791350313288,677.2396892299498
ARTHUR ROAD,1.2989015386148426,103.8871515994644,KATONG PARK MRT STATION (TE24),1.29783147778951,103.886178949925,160.36688559339947
PASIR PANJANG ROAD,1.279250564159759,103.7871543349464,PASIR PANJANG MRT STATION (CC26),1.27621352233766,103.791350313288,575.1910369976252
ADAM ROAD,1.3283914295772057,103.81275116991164,TAN KAH KEE MRT STATION (DT8),1.32555623519898,103.807760304729,637.7996890712698
LORONG SARINA,1.3208220667639174,103.90726139624486,EUNOS MRT STATION (EW7),1.31978354916088,103.903225807255,463.56991199896447
BISHOPSGATE,1.29835213645781,103.82445614425008,ORCHARD BOULEVARD MRT STATION (TE13),1.30242224836722,103.823868523249,454.77859590251995
MIMOSA CRESCENT,1.3828514086493884,103.86337484088382,YIO CHU KANG MRT STATION (NS15),1.38175587099132,103.84494727118,2054.3296010149325
UPPER THOMSON ROAD,1.371756973623092,103.82817985404844,MAYFLOWER MRT STATION (TE6),1.37146318831015,103.836567766945,934.0375232713523
LORONG STANGEE,1.3092900174251267,103.90567980362547,MARINE PARADE MRT STATION (TE26),1.30261163483383,103.904983086812,742.5213404274294
CHANCERY LANE,1.3192890782705595,103.83665326517912,NEWTON MRT STATION (DT11),1.31399286264569,103.837714613091,597.4213909093677
STILL ROAD SOUTH,1.3060710636169095,103.91017426894447,MARINE TERRACE MRT STATION (TE27),1.30666510344814,103.9151067005,552.8505847409052
SHELFORD ROAD,1.3245655455602017,103.81218701033484,BOTANIC GARDENS MRT STATION (CC19),1.32211373558877,103.814984510627,412.830003255552
LORONG ONG LYE,1.349179998752727,103.87865771227952,SERANGOON MRT STATION (NE12),1.34970788089564,103.873574849884,568.6695619180318
SHELFORD ROAD,1.328901528046647,103.8121003341008,TAN KAH KEE MRT STATION (DT8),1.32555623519898,103.807760304729,608.3749548570222
UPPER EAST COAST ROAD,1.3138495703612054,103.9380984377651,BAYSHORE MRT STATION (TE29),1.31312248291264,103.942309776767,475.52828762883814
JALAN DAUD,1.3274587161086722,103.9105765252894,KEMBANGAN MRT STATION (EW6),1.3210381335934,103.912947930851,757.4217348794981
WOODLEIGH CLOSE,1.3366954941831672,103.86759945348096,WOODLEIGH MRT STATION (NE11),1.33919004519388,103.87081830915,452.11671938424826
AMBER ROAD,1.298861319253314,103.89852286272748,TANJONG KATONG MRT STATION (TE25),1.29931925769899,103.897368742078,138.06434628504852
JALAN HAJI ALIAS,1.322527841094128,103.79504457908716,SIXTH AVENUE MRT STATION (DT7),1.33085764536226,103.796906838288,944.0962073611449
HOLLAND ROAD,1.3093504645747858,103.8069527317105,FARRER ROAD MRT STATION (CC20),1.31743915158967,103.807379214161,895.6640069799481
FARRER ROAD,1.313361874195156,103.80548954553964,FARRER ROAD MRT STATION (CC20),1.31743915158967,103.807379214161,497.48124961340034
BELMONT ROAD,1.3127874167644302,103.79936268859385,HOLLAND VILLAGE MRT STATION (CC21),1.31224029631595,103.796399122407,335.31936973228096
MEYER ROAD,1.296531266961569,103.89341902746334,TANJONG KATONG MRT STATION (TE25),1.29931925769899,103.897368742078,536.8967177662381
MARGATE ROAD,1.2987752600619915,103.88851762681094,KATONG PARK MRT STATION (TE24),1.29783147778951,103.886178949925,280.41630402809847
UPPER EAST COAST ROAD,1.3131804604284767,103.937319532508,BAYSHORE MRT STATION (TE29),1.31312248291264,103.942309776767,555.4045009372567
NASSIM ROAD,1.3085693549471114,103.82473848384323,NAPIER MRT STATION (TE12),1.30678223364785,103.818956796815,673.1086609642313
