place_id,name,business_status,geometry,price_level,user_ratings_total,rating,types,vicinity,permanently_closed,lat,lng
ChIJb5kdbQAf2jERSVIKh8bvucY,Kindness Flower florist,OPERATIONAL,"{'location': {'lat': 1.2477359, 'lng': 103.8419997}, 'viewport': {'northeast': {'lat': 1.249132080291502, 'lng': 103.8434053802915}, 'southwest': {'lat': 1.246434119708498, 'lng': 103.8407074197085}}}",,4.0,5.0,"['shopping_mall', 'home_goods_store', 'florist', 'store', 'point_of_interest', 'establishment']","31 Ocean Way, #01 - 23",,1.2477359,103.8419997
ChIJXTPNz2QX2jERm0ey6K8T-Dk,Julia Blank,OPERATIONAL,"{'location': {'lat': 1.248038, 'lng': 103.8422131}, 'viewport': {'northeast': {'lat': 1.249322280291502, 'lng': 103.8434901302915}, 'southwest': {'lat': 1.246624319708498, 'lng': 103.8407921697085}}}",,15.0,4.9,"['shopping_mall', 'clothing_store', 'store', 'point_of_interest', 'establishment']","7 Ocean Way, unit 0428",,1.248038,103.8422131
ChIJXTPNz2QX2jERm0ey6K8T-Dk,Julia Blank,OPERATIONAL,"{'location': {'lat': 1.248038, 'lng': 103.8422131}, 'viewport': {'northeast': {'lat': 1.249322280291502, 'lng': 103.8434901302915}, 'southwest': {'lat': 1.246624319708498, 'lng': 103.8407921697085}}}",,15.0,4.9,"['shopping_mall', 'clothing_store', 'store', 'point_of_interest', 'establishment']","7 Ocean Way, unit 0428",,1.248038,103.8422131
ChIJb5kdbQAf2jERSVIKh8bvucY,Kindness Flower florist,OPERATIONAL,"{'location': {'lat': 1.2477359, 'lng': 103.8419997}, 'viewport': {'northeast': {'lat': 1.249132080291502, 'lng': 103.8434053802915}, 'southwest': {'lat': 1.246434119708498, 'lng': 103.8407074197085}}}",,4.0,5.0,"['shopping_mall', 'florist', 'home_goods_store', 'store', 'point_of_interest', 'establishment']","31 Ocean Way, #01 - 23",,1.2477359,103.8419997
ChIJkbLj5_0b2jERx4X-HukR9gs,The Forum,OPERATIONAL,"{'location': {'lat': 1.2570472, 'lng': 103.8202366}, 'viewport': {'northeast': {'lat': 1.258312780291502, 'lng': 103.8211082}, 'southwest': {'lat': 1.255614819708498, 'lng': 103.8180494}}}",,109.0,4.2,"['shopping_mall', 'point_of_interest', 'establishment']",8 Sentosa Gateway,,1.2570472,103.8202366
ChIJkbLj5_0b2jERx4X-HukR9gs,The Forum,OPERATIONAL,"{'location': {'lat': 1.2570472, 'lng': 103.8202366}, 'viewport': {'northeast': {'lat': 1.258312780291502, 'lng': 103.8211082}, 'southwest': {'lat': 1.255614819708498, 'lng': 103.8180494}}}",,109.0,4.2,"['shopping_mall', 'point_of_interest', 'establishment']",8 Sentosa Gateway,,1.2570472,103.8202366
ChIJK7xLl1gZ2jERP_GdUY9XNLo,VivoCity,OPERATIONAL,"{'location': {'lat': 1.2647139, 'lng': 103.8231658}, 'viewport': {'northeast': {'lat': 1.266249780291502, 'lng': 103.82432815}, 'southwest': {'lat': 1.263551819708498, 'lng': 103.81967875}}}",,52984.0,4.5,"['shopping_mall', 'point_of_interest', 'establishment']",1 HarbourFront Walk,,1.2647139,103.8231658
ChIJqyZyPOMb2jERKr1XIGNJ-Ec,"DFS Singapore Cruise Centre, Harbourfront",OPERATIONAL,"{'location': {'lat': 1.2642175, 'lng': 103.8203582}, 'viewport': {'northeast': {'lat': 1.265422530291502, 'lng': 103.8218051302915}, 'southwest': {'lat': 1.262724569708498, 'lng': 103.8191071697085}}}",2.0,74.0,4.1,"['department_store', 'jewelry_store', 'shopping_mall', 'travel_agency', 'clothing_store', 'store', 'point_of_interest', 'establishment']","1 Maritime Square, #01-17/20 Singapore Cruise Centre",,1.2642175,103.8203582
ChIJ5Qx1aOIb2jERwQsRlRdHaWM,HarbourFront Centre,OPERATIONAL,"{'location': {'lat': 1.2643689, 'lng': 103.8200727}, 'viewport': {'northeast': {'lat': 1.265659480291502, 'lng': 103.8212487802915}, 'southwest': {'lat': 1.262961519708498, 'lng': 103.8185508197085}}}",,9619.0,4.4,"['shopping_mall', 'point_of_interest', 'establishment']",1 Maritime Square,,1.2643689,103.8200727
ChIJ0QCTfjcZ2jERigADSq7akLo,Crocodile Boutique,OPERATIONAL,"{'location': {'lat': 1.2649567, 'lng': 103.8215746}, 'viewport': {'northeast': {'lat': 1.266275630291502, 'lng': 103.8225599802915}, 'southwest': {'lat': 1.263577669708498, 'lng': 103.8198620197085}}}",,5.0,4.0,"['shopping_mall', 'point_of_interest', 'establishment']","1 HarbourFront Walk, #02-237 VivoCity",,1.2649567,103.8215746
ChIJ1RcVLRsb2jER3mNBVHlVuhw,MBT VivoCity,OPERATIONAL,"{'location': {'lat': 1.2650013, 'lng': 103.8209162}, 'viewport': {'northeast': {'lat': 1.266348530291502, 'lng': 103.8222300302915}, 'southwest': {'lat': 1.263650569708498, 'lng': 103.8195320697085}}}",,12.0,4.5,"['shopping_mall', 'point_of_interest', 'establishment']","HarbourFront Walk, #02-54, Singapore",,1.2650013,103.8209162
ChIJ34v-Alwb2jERPN7xtcLmuyU,EMME Visioncare,OPERATIONAL,"{'location': {'lat': 1.2640923, 'lng': 103.819917}, 'viewport': {'northeast': {'lat': 1.265478980291502, 'lng': 103.8211702302915}, 'southwest': {'lat': 1.262781019708498, 'lng': 103.8184722697085}}}",,135.0,5.0,"['shopping_mall', 'health', 'store', 'point_of_interest', 'establishment']","1 Maritime Square, #02-63 HarbourFront Centre",,1.2640923,103.819917
ChIJNVGRmcEb2jERUoQ_Ke5A864,Mapletree ARC Drop-Off Point,OPERATIONAL,"{'location': {'lat': 1.2736275, 'lng': 103.8017666}, 'viewport': {'northeast': {'lat': 1.274956980291502, 'lng': 103.8030994302915}, 'southwest': {'lat': 1.272259019708498, 'lng': 103.8004014697085}}}",,1.0,5.0,"['shopping_mall', 'point_of_interest', 'establishment']",460 Alexandra Road,,1.2736275,103.8017666
ChIJw656L8Mb2jERzs3namlmYGs,Telok Blangah Mall,OPERATIONAL,"{'location': {'lat': 1.2735039, 'lng': 103.8090393}, 'viewport': {'northeast': {'lat': 1.275057980291502, 'lng': 103.8100243802915}, 'southwest': {'lat': 1.272360019708498, 'lng': 103.8073264197085}}}",,50.0,4.1,"['shopping_mall', 'point_of_interest', 'establishment']","78A Telok Blangah Street 32, Singapore",,1.2735039,103.8090393
ChIJhWErVQAb2jERAO5keNPGffI,Singapore,OPERATIONAL,"{'location': {'lat': 1.2736245, 'lng': 103.8082585}, 'viewport': {'northeast': {'lat': 1.275118280291502, 'lng': 103.8098095802915}, 'southwest': {'lat': 1.272420319708498, 'lng': 103.8071116197085}}}",,,,"['shopping_mall', 'point_of_interest', 'establishment']","78B Telok Blangah Street 32, Singapore",,1.2736245,103.8082585
ChIJK7xLl1gZ2jERP_GdUY9XNLo,VivoCity,OPERATIONAL,"{'location': {'lat': 1.2647139, 'lng': 103.8231658}, 'viewport': {'northeast': {'lat': 1.266249780291502, 'lng': 103.82432815}, 'southwest': {'lat': 1.263551819708498, 'lng': 103.81967875}}}",,52984.0,4.5,"['shopping_mall', 'point_of_interest', 'establishment']",1 HarbourFront Walk,,1.2647139,103.8231658
ChIJ0QCTfjcZ2jERigADSq7akLo,Crocodile Boutique,OPERATIONAL,"{'location': {'lat': 1.2649567, 'lng': 103.8215746}, 'viewport': {'northeast': {'lat': 1.266275630291502, 'lng': 103.8225599802915}, 'southwest': {'lat': 1.263577669708498, 'lng': 103.8198620197085}}}",,5.0,4.0,"['shopping_mall', 'point_of_interest', 'establishment']","1 HarbourFront Walk, #02-237 VivoCity",,1.2649567,103.8215746
ChIJJdZoM2sZ2jERy8xMysHGueM,AlfaShip Agency Singapore,OPERATIONAL,"{'location': {'lat': 1.2735406, 'lng': 103.8447021}, 'viewport': {'northeast': {'lat': 1.274904480291502, 'lng': 103.8460356302915}, 'southwest': {'lat': 1.272206519708498, 'lng': 103.8433376697085}}}",,1.0,5.0,"['shopping_mall', 'point_of_interest', 'establishment']",Anson Road,,1.2735406,103.8447021
ChIJr1piWqUb2jERe2fPwBJvucU,Viva Vista Shopping Mall,OPERATIONAL,"{'location': {'lat': 1.279714, 'lng': 103.7860135}, 'viewport': {'northeast': {'lat': 1.280748680291502, 'lng': 103.7874178302915}, 'southwest': {'lat': 1.278050719708498, 'lng': 103.7847198697085}}}",,204.0,3.6,"['shopping_mall', 'point_of_interest', 'establishment']","3 South Buona Vista Road, Viva Vista Shopping Mall",,1.279714,103.7860135
ChIJeTfMRwAb2jER1Hq-k7VMrb0,Oil shop,OPERATIONAL,"{'location': {'lat': 1.2760675, 'lng': 103.7933457}, 'viewport': {'northeast': {'lat': 1.277382780291502, 'lng': 103.7945785302915}, 'southwest': {'lat': 1.274684819708498, 'lng': 103.7918805697085}}}",,1.0,5.0,"['shopping_mall', 'point_of_interest', 'establishment']",114 Pepys Road,,1.2760675,103.7933457
ChIJT045e20Q2jERAOMPi8p1-yk,Micro Scooters Singapore,OPERATIONAL,"{'location': {'lat': 1.2759761, 'lng': 103.7946432}, 'viewport': {'northeast': {'lat': 1.277343930291502, 'lng': 103.7959931302915}, 'southwest': {'lat': 1.274645969708498, 'lng': 103.7932951697085}}}",,7.0,5.0,"['shopping_mall', 'car_repair', 'store', 'point_of_interest', 'establishment']","102E Pasir Panjang Road, #07-02 Citilink Warehouse Complex",,1.2759761,103.7946432
ChIJeTfMRwAb2jER1Hq-k7VMrb0,Oil shop,OPERATIONAL,"{'location': {'lat': 1.2760675, 'lng': 103.7933457}, 'viewport': {'northeast': {'lat': 1.277382780291502, 'lng': 103.7945785302915}, 'southwest': {'lat': 1.274684819708498, 'lng': 103.7918805697085}}}",,1.0,5.0,"['shopping_mall', 'point_of_interest', 'establishment']",114 Pepys Road,,1.2760675,103.7933457
ChIJwz3yHMEb2jERHclcbs5KL4A,Alexandra Retail Centre (ARC),OPERATIONAL,"{'location': {'lat': 1.2739139, 'lng': 103.8015008}, 'viewport': {'northeast': {'lat': 1.275046580291502, 'lng': 103.8026987302915}, 'southwest': {'lat': 1.272348619708498, 'lng': 103.8000007697085}}}",,4392.0,4.0,"['shopping_mall', 'point_of_interest', 'establishment']","460 Alexandra Road, Singapore",,1.2739139,103.8015008
ChIJNVGRmcEb2jERUoQ_Ke5A864,Mapletree ARC Drop-Off Point,OPERATIONAL,"{'location': {'lat': 1.2736275, 'lng': 103.8017666}, 'viewport': {'northeast': {'lat': 1.274956980291502, 'lng': 103.8030994302915}, 'southwest': {'lat': 1.272259019708498, 'lng': 103.8004014697085}}}",,1.0,5.0,"['shopping_mall', 'point_of_interest', 'establishment']",460 Alexandra Road,,1.2736275,103.8017666
ChIJw656L8Mb2jERzs3namlmYGs,Telok Blangah Mall,OPERATIONAL,"{'location': {'lat': 1.2735039, 'lng': 103.8090393}, 'viewport': {'northeast': {'lat': 1.275057980291502, 'lng': 103.8100243802915}, 'southwest': {'lat': 1.272360019708498, 'lng': 103.8073264197085}}}",,50.0,4.1,"['shopping_mall', 'point_of_interest', 'establishment']","78A Telok Blangah Street 32, Singapore",,1.2735039,103.8090393
ChIJhWErVQAb2jERAO5keNPGffI,Singapore,OPERATIONAL,"{'location': {'lat': 1.2736245, 'lng': 103.8082585}, 'viewport': {'northeast': {'lat': 1.275118280291502, 'lng': 103.8098095802915}, 'southwest': {'lat': 1.272420319708498, 'lng': 103.8071116197085}}}",,,,"['shopping_mall', 'point_of_interest', 'establishment']","78B Telok Blangah Street 32, Singapore",,1.2736245,103.8082585
ChIJn2Tr9dgb2jERConEIWD2iUE,Crescent Mall,OPERATIONAL,"{'location': {'lat': 1.2775023, 'lng': 103.8197427}, 'viewport': {'northeast': {'lat': 1.278863830291502, 'lng': 103.8212442302915}, 'southwest': {'lat': 1.276165869708498, 'lng': 103.8185462697085}}}",,144.0,4.1,"['shopping_mall', 'point_of_interest', 'establishment']","12 Telok Blangah Crescent, Singapore",,1.2775023,103.8197427
ChIJn2Tr9dgb2jERConEIWD2iUE,Crescent Mall,OPERATIONAL,"{'location': {'lat': 1.2775023, 'lng': 103.8197427}, 'viewport': {'northeast': {'lat': 1.278863830291502, 'lng': 103.8212442302915}, 'southwest': {'lat': 1.276165869708498, 'lng': 103.8185462697085}}}",,144.0,4.1,"['shopping_mall', 'point_of_interest', 'establishment']","12 Telok Blangah Crescent, Singapore",,1.2775023,103.8197427
ChIJxaEA_G4Z2jER_SdwZQv4M3A,The Blair House,OPERATIONAL,"{'location': {'lat': 1.2770421, 'lng': 103.8365577}, 'viewport': {'northeast': {'lat': 1.278450080291502, 'lng': 103.8378532802915}, 'southwest': {'lat': 1.275752119708498, 'lng': 103.8351553197085}}}",,3.0,4.3,"['shopping_mall', 'point_of_interest', 'establishment']","Kampong Bahru Road, #169349 23",,1.2770421,103.8365577
ChIJJRadj2wZ2jERqI_61mafRPU,Tanjong Pagar Plaza,OPERATIONAL,"{'location': {'lat': 1.2755282, 'lng': 103.842967}, 'viewport': {'northeast': {'lat': 1.276411380291502, 'lng': 103.8441855802915}, 'southwest': {'lat': 1.273713419708498, 'lng': 103.8414876197085}}}",,2183.0,4.1,"['shopping_mall', 'point_of_interest', 'establishment']","SG, Tanjong Pagar Plaza, #1",,1.2755282,103.842967
ChIJvUUHX2sZ2jERFw3Rybv_wwY,100 AM,OPERATIONAL,"{'location': {'lat': 1.2749931, 'lng': 103.8435825}, 'viewport': {'northeast': {'lat': 1.276195530291502, 'lng': 103.8447891802915}, 'southwest': {'lat': 1.273497569708498, 'lng': 103.8420912197085}}}",,4181.0,4.1,"['shopping_mall', 'point_of_interest', 'establishment']",100 Tras Street,,1.2749931,103.8435825
ChIJHVm8JRMZ2jERK8ACFl8Gp04,Guoco Tower,OPERATIONAL,"{'location': {'lat': 1.276951, 'lng': 103.8458291}, 'viewport': {'northeast': {'lat': 1.278364030291502, 'lng': 103.8468286302915}, 'southwest': {'lat': 1.275666069708498, 'lng': 103.8441306697085}}}",,3442.0,4.3,"['shopping_mall', 'point_of_interest', 'establishment']","1 Wallich Street, Singapore",,1.276951,103.8458291
ChIJJdZoM2sZ2jERy8xMysHGueM,AlfaShip Agency Singapore,OPERATIONAL,"{'location': {'lat': 1.2735406, 'lng': 103.8447021}, 'viewport': {'northeast': {'lat': 1.274904480291502, 'lng': 103.8460356302915}, 'southwest': {'lat': 1.272206519708498, 'lng': 103.8433376697085}}}",,1.0,5.0,"['shopping_mall', 'point_of_interest', 'establishment']",Anson Road,,1.2735406,103.8447021
ChIJIZCqX2sZ2jERhS23Zenx3zg,Amara Holdings Limited,OPERATIONAL,"{'location': {'lat': 1.2749455, 'lng': 103.8434094}, 'viewport': {'northeast': {'lat': 1.276216230291502, 'lng': 103.8447544302915}, 'southwest': {'lat': 1.273518269708498, 'lng': 103.8420564697085}}}",,1.0,5.0,"['shopping_mall', 'lodging', 'general_contractor', 'point_of_interest', 'establishment']","100 Tras Street, #06-01 100, AM",,1.2749455,103.8434094
ChIJ2-WvdwAZ2jERlGc-ALm9my8,International Plaza,OPERATIONAL,"{'location': {'lat': 1.2761243, 'lng': 103.8458341}, 'viewport': {'northeast': {'lat': 1.277329030291502, 'lng': 103.8473625802915}, 'southwest': {'lat': 1.274631069708498, 'lng': 103.8446646197085}}}",,2.0,4.5,"['shopping_mall', 'point_of_interest', 'establishment']",10 Anson Road,,1.2761243,103.8458341
ChIJn5yMmIwZ2jERiH9SZZJOguQ,Elegance Beauty & Slimming Centre Pte. Ltd.,OPERATIONAL,"{'location': {'lat': 1.2756998, 'lng': 103.8458098}, 'viewport': {'northeast': {'lat': 1.277000980291502, 'lng': 103.8473554802915}, 'southwest': {'lat': 1.274303019708498, 'lng': 103.8446575197085}}}",,137.0,3.0,"['shopping_mall', 'point_of_interest', 'establishment']","10 Anson Road, #02-25/26/27 International Plaza, Singapore",,1.2756998,103.8458098
ChIJy4P1jf4Z2jERL0pE18JQ9RQ,Tanjong Pagar Xchange,OPERATIONAL,"{'location': {'lat': 1.2769449, 'lng': 103.8453569}, 'viewport': {'northeast': {'lat': 1.278165330291502, 'lng': 103.8464717802915}, 'southwest': {'lat': 1.275467369708498, 'lng': 103.8437738197085}}}",,8.0,3.6,"['shopping_mall', 'point_of_interest', 'establishment']",7 Wallich Street,,1.2769449,103.8453569
ChIJpZh7TmsZ2jER8N5QwOBLdIw,Icon Village,OPERATIONAL,"{'location': {'lat': 1.2749072, 'lng': 103.84443}, 'viewport': {'northeast': {'lat': 1.276079930291502, 'lng': 103.8456008302915}, 'southwest': {'lat': 1.273381969708498, 'lng': 103.8429028697085}}}",,686.0,4.1,"['shopping_mall', 'point_of_interest', 'establishment']","12 Gopeng Street, Singapore",,1.2749072,103.84443
ChIJOY_WUnUZ2jER1bs9EAqRB-k,Tanjong Alley,OPERATIONAL,"{'location': {'lat': 1.2794614, 'lng': 103.8440827}, 'viewport': {'northeast': {'lat': 1.280751630291502, 'lng': 103.8453355802915}, 'southwest': {'lat': 1.278053669708498, 'lng': 103.8426376197085}}}",,3.0,5.0,"['shopping_mall', 'restaurant', 'food', 'point_of_interest', 'establishment']",21 Tanjong Pagar Road,,1.2794614,103.8440827
ChIJ1RbNoxMZ2jERdcsK4hU9CIc,Downtown Gallery,OPERATIONAL,"{'location': {'lat': 1.2771334, 'lng': 103.8485073}, 'viewport': {'northeast': {'lat': 1.278277830291502, 'lng': 103.8497068802915}, 'southwest': {'lat': 1.275579869708498, 'lng': 103.8470089197085}}}",,29.0,4.4,"['shopping_mall', 'point_of_interest', 'establishment']",6A Shenton Way,,1.2771334,103.8485073
ChIJ7Zte0vwZ2jERGjlAt4lTYJg,WomensFashionFun,OPERATIONAL,"{'location': {'lat': 1.2784433, 'lng': 103.8477691}, 'viewport': {'northeast': {'lat': 1.279834930291502, 'lng': 103.8490486302915}, 'southwest': {'lat': 1.277136969708498, 'lng': 103.8463506697085}}}",,8.0,5.0,"['shopping_mall', 'point_of_interest', 'establishment']","160 Robinson Road, #14-04",,1.2784433,103.8477691
ChIJ21Df72gZ2jERUSOfvov3SFk,OUE Downtown 1,OPERATIONAL,"{'location': {'lat': 1.2773786, 'lng': 103.8486667}, 'viewport': {'northeast': {'lat': 1.278696330291502, 'lng': 103.8500521302915}, 'southwest': {'lat': 1.275998369708498, 'lng': 103.8473541697085}}}",,1.0,5.0,"['shopping_mall', 'point_of_interest', 'establishment']","6a Shenton Way, Singapore",,1.2773786,103.8486667
ChIJ8W0UHwAZ2jERPiAUP4JyR-M,Kada,OPERATIONAL,"{'location': {'lat': 1.2801972, 'lng': 103.845171}, 'viewport': {'northeast': {'lat': 1.281535480291502, 'lng': 103.8465263802915}, 'southwest': {'lat': 1.278837519708498, 'lng': 103.8438284197085}}}",,64.0,4.3,"['shopping_mall', 'point_of_interest', 'establishment']",5 Kadayanallur Street,,1.2801972,103.845171
ChIJX321K1EZ2jER_culzQveOXs,Oxley Tower,OPERATIONAL,"{'location': {'lat': 1.278646, 'lng': 103.8484196}, 'viewport': {'northeast': {'lat': 1.280104680291502, 'lng': 103.8499191802915}, 'southwest': {'lat': 1.277406719708498, 'lng': 103.8472212197085}}}",,337.0,4.1,"['shopping_mall', 'point_of_interest', 'establishment']","138 Robinson Road, Singapore",,1.278646,103.8484196
ChIJp6PIaBIZ2jERoVG-DVIb8Dk,Julia & Yee Flower shop,OPERATIONAL,"{'location': {'lat': 1.2787633, 'lng': 103.8486037}, 'viewport': {'northeast': {'lat': 1.280073180291502, 'lng': 103.8500161302915}, 'southwest': {'lat': 1.277375219708498, 'lng': 103.8473181697085}}}",,2.0,4.5,"['shopping_mall', 'point_of_interest', 'establishment']","罗敏申路, #138 Oxley Tower",,1.2787633,103.8486037
ChIJddB_G30Z2jERTtNZy8DQEI0,OUE Downtown 2,OPERATIONAL,"{'location': {'lat': 1.2783399, 'lng': 103.8491324}, 'viewport': {'northeast': {'lat': 1.2792787, 'lng': 103.8501256}, 'southwest': {'lat': 1.2759099, 'lng': 103.8473804}}}",,391.0,4.4,"['shopping_mall', 'point_of_interest', 'establishment']","6 Shenton Way, Singapore",,1.2783399,103.8491324
ChIJkdUStooX2jER6qKW0ePeqd4,Vietnam Chamber of Commerce,OPERATIONAL,"{'location': {'lat': 1.2792463, 'lng': 103.8541121}, 'viewport': {'northeast': {'lat': 1.280804680291502, 'lng': 103.8552076802915}, 'southwest': {'lat': 1.278106719708498, 'lng': 103.8525097197085}}}",,5.0,5.0,"['shopping_mall', 'finance', 'local_government_office', 'point_of_interest', 'establishment']","10 Marina Boulevard, Tower 2, Level 39 Marina Bay Financial Centre, Singapore",,1.2792463,103.8541121
ChIJdzLGapkZ2jER2QHg4c3yk_E,Marina One - The Heart,OPERATIONAL,"{'location': {'lat': 1.2775677, 'lng': 103.8524901}, 'viewport': {'northeast': {'lat': 1.278768280291502, 'lng': 103.8536040302915}, 'southwest': {'lat': 1.276070319708498, 'lng': 103.8509060697085}}}",,16.0,4.1,"['shopping_mall', 'point_of_interest', 'establishment']","5 Straits View, #01-28 The Heart, Marina One Show Gallery, Singapore",,1.2775677,103.8524901
ChIJ21Df72gZ2jERUSOfvov3SFk,OUE Downtown 1,OPERATIONAL,"{'location': {'lat': 1.2773786, 'lng': 103.8486667}, 'viewport': {'northeast': {'lat': 1.278696330291502, 'lng': 103.8500521302915}, 'southwest': {'lat': 1.275998369708498, 'lng': 103.8473541697085}}}",,1.0,5.0,"['shopping_mall', 'point_of_interest', 'establishment']","6a Shenton Way, Singapore",,1.2773786,103.8486667
ChIJ1RbNoxMZ2jERdcsK4hU9CIc,Downtown Gallery,OPERATIONAL,"{'location': {'lat': 1.2771334, 'lng': 103.8485073}, 'viewport': {'northeast': {'lat': 1.278277830291502, 'lng': 103.8497068802915}, 'southwest': {'lat': 1.275579869708498, 'lng': 103.8470089197085}}}",,29.0,4.4,"['shopping_mall', 'point_of_interest', 'establishment']",6A Shenton Way,,1.2771334,103.8485073
ChIJddB_G30Z2jERTtNZy8DQEI0,OUE Downtown 2,OPERATIONAL,"{'location': {'lat': 1.2783399, 'lng': 103.8491324}, 'viewport': {'northeast': {'lat': 1.2792787, 'lng': 103.8501256}, 'southwest': {'lat': 1.2759099, 'lng': 103.8473804}}}",,391.0,4.4,"['shopping_mall', 'point_of_interest', 'establishment']","6 Shenton Way, Singapore",,1.2783399,103.8491324
ChIJJeFJzWsZ2jERRYJT25O5jCY,Licete Global,CLOSED_TEMPORARILY,"{'location': {'lat': 1.2792463, 'lng': 103.8541121}, 'viewport': {'northeast': {'lat': 1.280826580291502, 'lng': 103.8551575802915}, 'southwest': {'lat': 1.278128619708498, 'lng': 103.8524596197085}}}",,,,"['shopping_mall', 'point_of_interest', 'establishment']","10 Marina Boulevard, Singapore",True,1.2792463,103.8541121
ChIJG_m6Rw4Z2jERSePN1VWubwA,Toast Box (Marina Bay Link Mall),OPERATIONAL,"{'location': {'lat': 1.2797807, 'lng': 103.853046}, 'viewport': {'northeast': {'lat': 1.281022330291502, 'lng': 103.8545647802915}, 'southwest': {'lat': 1.278324369708498, 'lng': 103.8518668197085}}}",1.0,495.0,4.2,"['shopping_mall', 'cafe', 'store', 'point_of_interest', 'food', 'establishment']","Blk 8A Marina Boulevard, B2-04A",,1.2797807,103.853046
ChIJHXaCig4Z2jER6U4Qy8aX7Co,Marina Bay Link Mall,OPERATIONAL,"{'location': {'lat': 1.2795303, 'lng': 103.8543391}, 'viewport': {'northeast': {'lat': 1.280788980291502, 'lng': 103.85577375}, 'southwest': {'lat': 1.278091019708498, 'lng': 103.85305395}}}",,3679.0,4.3,"['shopping_mall', 'point_of_interest', 'establishment']",8A Marina Boulevard,,1.2795303,103.8543391
ChIJp6PIaBIZ2jERoVG-DVIb8Dk,Julia & Yee Flower shop,OPERATIONAL,"{'location': {'lat': 1.2787633, 'lng': 103.8486037}, 'viewport': {'northeast': {'lat': 1.280073180291502, 'lng': 103.8500161302915}, 'southwest': {'lat': 1.277375219708498, 'lng': 103.8473181697085}}}",,2.0,4.5,"['shopping_mall', 'point_of_interest', 'establishment']","罗敏申路, #138 Oxley Tower",,1.2787633,103.8486037
ChIJX321K1EZ2jER_culzQveOXs,Oxley Tower,OPERATIONAL,"{'location': {'lat': 1.278646, 'lng': 103.8484196}, 'viewport': {'northeast': {'lat': 1.280104680291502, 'lng': 103.8499191802915}, 'southwest': {'lat': 1.277406719708498, 'lng': 103.8472212197085}}}",,337.0,4.1,"['shopping_mall', 'point_of_interest', 'establishment']","138 Robinson Road, Singapore",,1.278646,103.8484196
ChIJl-F2TR8Z2jER47tQRVbi1oU,Luxe Mall,OPERATIONAL,"{'location': {'lat': 1.2798906, 'lng': 103.854546}, 'viewport': {'northeast': {'lat': 1.281451380291502, 'lng': 103.8557319802915}, 'southwest': {'lat': 1.278753419708498, 'lng': 103.8530340197085}}}",,,,"['shopping_mall', 'point_of_interest', 'establishment']",Singapore,,1.2798906,103.854546
ChIJ7Zte0vwZ2jERGjlAt4lTYJg,WomensFashionFun,OPERATIONAL,"{'location': {'lat': 1.2784433, 'lng': 103.8477691}, 'viewport': {'northeast': {'lat': 1.279834930291502, 'lng': 103.8490486302915}, 'southwest': {'lat': 1.277136969708498, 'lng': 103.8463506697085}}}",,8.0,5.0,"['shopping_mall', 'point_of_interest', 'establishment']","160 Robinson Road, #14-04",,1.2784433,103.8477691
ChIJyZR0zqsb2jERMHnnhwh5qOs,Fruit Wholesale Pasir Panjang,OPERATIONAL,"{'location': {'lat': 1.286429, 'lng': 103.7774781}, 'viewport': {'northeast': {'lat': 1.287720680291502, 'lng': 103.7787832802915}, 'southwest': {'lat': 1.285022719708498, 'lng': 103.7760853197085}}}",,2.0,4.5,"['shopping_mall', 'point_of_interest', 'establishment']","12 Pasir Panjang, Wholesale Centre, Singapore",,1.286429,103.7774781
ChIJISBn6awb2jERRuKkH9QGSUk,Sparkle,OPERATIONAL,"{'location': {'lat': 1.2878364, 'lng': 103.7827555}, 'viewport': {'northeast': {'lat': 1.288971580291502, 'lng': 103.7838482802915}, 'southwest': {'lat': 1.286273619708498, 'lng': 103.7811503197085}}}",,29.0,3.9,"['shopping_mall', 'point_of_interest', 'establishment']",45 Science Park Road,,1.2878364,103.7827555
ChIJr1piWqUb2jERe2fPwBJvucU,Viva Vista Shopping Mall,OPERATIONAL,"{'location': {'lat': 1.279714, 'lng': 103.7860135}, 'viewport': {'northeast': {'lat': 1.280748680291502, 'lng': 103.7874178302915}, 'southwest': {'lat': 1.278050719708498, 'lng': 103.7847198697085}}}",,204.0,3.6,"['shopping_mall', 'point_of_interest', 'establishment']","3 South Buona Vista Road, Viva Vista Shopping Mall",,1.279714,103.7860135
ChIJ_1WtiMwb2jERZKYs6ALsFxc,Alexandra Central,OPERATIONAL,"{'location': {'lat': 1.2871335, 'lng': 103.8053617}, 'viewport': {'northeast': {'lat': 1.288595930291502, 'lng': 103.8065003302915}, 'southwest': {'lat': 1.285897969708498, 'lng': 103.8038023697085}}}",,1848.0,3.7,"['shopping_mall', 'point_of_interest', 'establishment']",321 Alexandra Road,,1.2871335,103.8053617
ChIJnW8KW-gb2jER1-hHWNDs5hc,NEWLINK SPORTS #02-34 / 36 ( BADMINTON RACQUET AND INDOOR COURT SHOES ),OPERATIONAL,"{'location': {'lat': 1.286443, 'lng': 103.803663}, 'viewport': {'northeast': {'lat': 1.287991780291502, 'lng': 103.8049399302915}, 'southwest': {'lat': 1.285293819708498, 'lng': 103.8022419697085}}}",,1.0,1.0,"['shopping_mall', 'point_of_interest', 'establishment']",1 Queensway,,1.286443,103.803663
ChIJc9jAagAb2jERbnL-LUEewvg,Alexandra Village,OPERATIONAL,"{'location': {'lat': 1.2866279, 'lng': 103.8036456}, 'viewport': {'northeast': {'lat': 1.288025130291502, 'lng': 103.8049666802915}, 'southwest': {'lat': 1.285327169708498, 'lng': 103.8022687197085}}}",,1.0,5.0,"['shopping_mall', 'point_of_interest', 'establishment']","123 Bukit Merah Lane 1, Singapore",,1.2866279,103.8036456
ChIJoUPrFcAb2jER--rytUjvjMM,ToyBros,OPERATIONAL,"{'location': {'lat': 1.2875526, 'lng': 103.8034685}, 'viewport': {'northeast': {'lat': 1.289166130291502, 'lng': 103.8048717802915}, 'southwest': {'lat': 1.286468169708498, 'lng': 103.8021738197085}}}",,15.0,4.7,"['shopping_mall', 'point_of_interest', 'establishment']","Queensway, #02-03 Queensway Shopping Centre, Singapore",,1.2875526,103.8034685
ChIJpeuce8sb2jERad66-Hwmus8,Queensway Shopping Centre,OPERATIONAL,"{'location': {'lat': 1.2875526, 'lng': 103.8034685}, 'viewport': {'northeast': {'lat': 1.288960380291502, 'lng': 103.8050967302915}, 'southwest': {'lat': 1.286262419708498, 'lng': 103.8023987697085}}}",,3681.0,4.2,"['shopping_mall', 'point_of_interest', 'establishment']","1 Queensway, Singapore",,1.2875526,103.8034685
ChIJ99UkHtAb2jER-8eKrjNm_nQ,Depot Heights Shopping Centre,OPERATIONAL,"{'location': {'lat': 1.2812742, 'lng': 103.8099871}, 'viewport': {'northeast': {'lat': 1.282660430291502, 'lng': 103.8112200302915}, 'southwest': {'lat': 1.279962469708498, 'lng': 103.8085220697085}}}",,760.0,3.7,"['shopping_mall', 'point_of_interest', 'establishment']","108 Depot Road, Singapore",,1.2812742,103.8099871
ChIJx-bd31gb2jEROE1s1B4VSpg,Bukit Merah Town Centre,OPERATIONAL,"{'location': {'lat': 1.28317, 'lng': 103.8177388}, 'viewport': {'northeast': {'lat': 1.2851484, 'lng': 103.81915025}, 'southwest': {'lat': 1.2818712, 'lng': 103.81497725}}}",,936.0,4.1,"['shopping_mall', 'point_of_interest', 'establishment']","166 Bukit Merah Central, Singapore",,1.28317,103.8177388
ChIJe5qyMnkZ2jERYRN7QP_pCMQ,Tiong Bahru Plaza,OPERATIONAL,"{'location': {'lat': 1.2866535, 'lng': 103.8271459}, 'viewport': {'northeast': {'lat': 1.288009930291502, 'lng': 103.8288301302915}, 'southwest': {'lat': 1.285311969708498, 'lng': 103.8261321697085}}}",,8798.0,4.2,"['shopping_mall', 'point_of_interest', 'establishment']","302 Tiong Bahru Road, Singapore",,1.2866535,103.8271459
ChIJ79PHdgAZ2jERCdzXbGHaq_8,People PArk Complex Loading and Unloading Area,OPERATIONAL,"{'location': {'lat': 1.2840704, 'lng': 103.8419889}, 'viewport': {'northeast': {'lat': 1.285478880291502, 'lng': 103.8434091302915}, 'southwest': {'lat': 1.282780919708498, 'lng': 103.8407111697085}}}",,,,"['shopping_mall', 'point_of_interest', 'establishment']","Singapore, アウトラム, 1 Park Road",,1.2840704,103.8419889
ChIJZzMfDnMZ2jERZGYtqf2QiN8,New Bridge Centre,OPERATIONAL,"{'location': {'lat': 1.2829104, 'lng': 103.8425269}, 'viewport': {'northeast': {'lat': 1.284288180291502, 'lng': 103.8439265802915}, 'southwest': {'lat': 1.281590219708498, 'lng': 103.8412286197085}}}",,342.0,4.0,"['shopping_mall', 'point_of_interest', 'establishment']",336 Smith Street,,1.2829104,103.8425269
ChIJ126ffHMZ2jERCtJItR3Ddm8,Boon Onn Jewellers,OPERATIONAL,"{'location': {'lat': 1.2842156, 'lng': 103.8424649}, 'viewport': {'northeast': {'lat': 1.285643930291502, 'lng': 103.8435569302915}, 'southwest': {'lat': 1.282945969708498, 'lng': 103.8408589697085}}}",,1.0,5.0,"['shopping_mall', 'point_of_interest', 'establishment']","No.1 Park Road, #03-K70 People's Park Complex",,1.2842156,103.8424649
ChIJUbBZdnMZ2jERwGxmDy7DZg0,People's Park Complex,OPERATIONAL,"{'location': {'lat': 1.2841947, 'lng': 103.842484}, 'viewport': {'northeast': {'lat': 1.285277830291502, 'lng': 103.8439702302915}, 'southwest': {'lat': 1.282579869708498, 'lng': 103.8412722697085}}}",,3405.0,4.1,"['shopping_mall', 'point_of_interest', 'establishment']",1 Park Road,,1.2841947,103.842484
ChIJ32fXcgAZ2jERnNIRypYFNo8,Chinatown Complex Shopping Mall,OPERATIONAL,"{'location': {'lat': 1.2828487, 'lng': 103.8429351}, 'viewport': {'northeast': {'lat': 1.284211730291502, 'lng': 103.8444804802915}, 'southwest': {'lat': 1.281513769708498, 'lng': 103.8417825197085}}}",,1.0,4.0,"['shopping_mall', 'point_of_interest', 'establishment']","335 Smith Street, #1.282875 103.843167, Singapore",,1.2828487,103.8429351
ChIJBXC7TAsZ2jERdpAi-2uczMQ,Chinatown Point,OPERATIONAL,"{'location': {'lat': 1.2852093, 'lng': 103.8447228}, 'viewport': {'northeast': {'lat': 1.286175930291502, 'lng': 103.8458059802915}, 'southwest': {'lat': 1.283477969708498, 'lng': 103.8431080197085}}}",2.0,19622.0,4.2,"['shopping_mall', 'point_of_interest', 'establishment']","133 New Bridge Road, Singapore",,1.2852093,103.8447228
ChIJb_qbYwwZ2jERH9tIsjT57tg,Far East Square,OPERATIONAL,"{'location': {'lat': 1.2834477, 'lng': 103.8478431}, 'viewport': {'northeast': {'lat': 1.284510880291502, 'lng': 103.849881}, 'southwest': {'lat': 1.281812919708498, 'lng': 103.8465586}}}",,1132.0,4.1,"['shopping_mall', 'point_of_interest', 'establishment']",26 China Street,,1.2834477,103.8478431
ChIJFdnVD3MZ2jERGOEh1EcEEpU,Xiang Heng Wedding & Gifts,OPERATIONAL,"{'location': {'lat': 1.2825567, 'lng': 103.8430583}, 'viewport': {'northeast': {'lat': 1.283959880291502, 'lng': 103.8445532802915}, 'southwest': {'lat': 1.281261919708498, 'lng': 103.8418553197085}}}",,8.0,4.5,"['shopping_mall', 'point_of_interest', 'establishment']","Smith Street, #01-75/76 Blk 335",,1.2825567,103.8430583
ChIJSUZtKAwZ2jERUYaX1rnGjS8,De Ideaz Pte Ltd,OPERATIONAL,"{'location': {'lat': 1.2810642, 'lng': 103.8493203}, 'viewport': {'northeast': {'lat': 1.282448330291502, 'lng': 103.8506089302915}, 'southwest': {'lat': 1.279750369708498, 'lng': 103.8479109697085}}}",,7.0,2.7,"['shopping_mall', 'store', 'point_of_interest', 'establishment']","101 Cecil Street, Building 25-06 Tong Eng",,1.2810642,103.8493203
ChIJq6rONXMZ2jERJ7zYe9ZCWZU,Pagoda House,OPERATIONAL,"{'location': {'lat': 1.2832144, 'lng': 103.8444459}, 'viewport': {'northeast': {'lat': 1.284609080291502, 'lng': 103.8458188802915}, 'southwest': {'lat': 1.281911119708498, 'lng': 103.8431209197085}}}",,19.0,4.5,"['shopping_mall', 'point_of_interest', 'establishment']",51 Pagoda Street,,1.2832144,103.8444459
ChIJd6tqNooZ2jERNVBcUtdX6Dk,Gb Store,OPERATIONAL,"{'location': {'lat': 1.2816606, 'lng': 103.8450102}, 'viewport': {'northeast': {'lat': 1.283014330291502, 'lng': 103.8463619802915}, 'southwest': {'lat': 1.280316369708498, 'lng': 103.8436640197085}}}",,1.0,5.0,"['shopping_mall', 'point_of_interest', 'establishment']","25 Smith Street, Singapore",,1.2816606,103.8450102
ChIJGxQdBzIZ2jERtQd9nyRosa4,City souvenir costume jewellery,OPERATIONAL,"{'location': {'lat': 1.2814561, 'lng': 103.8448848}, 'viewport': {'northeast': {'lat': 1.282818380291502, 'lng': 103.8462098302915}, 'southwest': {'lat': 1.280120419708498, 'lng': 103.8435118697085}}}",,2.0,5.0,"['shopping_mall', 'point_of_interest', 'establishment']",Singapore,,1.2814561,103.8448848
ChIJLxPzz3IZ2jERb9UsLJSFRUg,Jan Hup Artifacts PTE Ltd,OPERATIONAL,"{'location': {'lat': 1.281618, 'lng': 103.8443011}, 'viewport': {'northeast': {'lat': 1.282860130291502, 'lng': 103.8454854802915}, 'southwest': {'lat': 1.280162169708498, 'lng': 103.8427875197085}}}",,2.0,5.0,"['shopping_mall', 'point_of_interest', 'establishment']",Singapore,,1.281618,103.8443011
ChIJd0C-GXMZ2jERTBwYo9qF17M,R & A Department Store,OPERATIONAL,"{'location': {'lat': 1.2824043, 'lng': 103.8433125}, 'viewport': {'northeast': {'lat': 1.283800330291502, 'lng': 103.8446709802915}, 'southwest': {'lat': 1.281102369708498, 'lng': 103.8419730197085}}}",,,,"['shopping_mall', 'point_of_interest', 'establishment']",335 Smith Street,,1.2824043,103.8433125
ChIJYbYbh60Z2jER6ATKk37V1jc,Pagoda St,OPERATIONAL,"{'location': {'lat': 1.2838545, 'lng': 103.8434016}, 'viewport': {'northeast': {'lat': 1.285077780291502, 'lng': 103.8445979802915}, 'southwest': {'lat': 1.282379819708498, 'lng': 103.8419000197085}}}",,7.0,4.7,"['shopping_mall', 'point_of_interest', 'establishment']","Pagoda Street, シンガポール",,1.2838545,103.8434016
ChIJWbS5XRwZ2jERAc34umUVB2E,Lucky Chinatown,OPERATIONAL,"{'location': {'lat': 1.2837118, 'lng': 103.8433256}, 'viewport': {'northeast': {'lat': 1.285027180291502, 'lng': 103.8445241802915}, 'southwest': {'lat': 1.282329219708498, 'lng': 103.8418262197085}}}",,157.0,4.0,"['shopping_mall', 'point_of_interest', 'establishment']","211 New Bridge Road, Singapore",,1.2837118,103.8433256
ChIJfSYyn3QZ2jERzxX0wJK1Sp4,The Majestic,OPERATIONAL,"{'location': {'lat': 1.2847423, 'lng': 103.8432282}, 'viewport': {'northeast': {'lat': 1.285973280291502, 'lng': 103.8446995302915}, 'southwest': {'lat': 1.283275319708498, 'lng': 103.8420015697085}}}",,140.0,4.0,"['shopping_mall', 'point_of_interest', 'establishment']",80 Eu Tong Sen Street,,1.2847423,103.8432282
ChIJ16ubaHMZ2jERPOnd4EUXFjU,Leggenda Pte,OPERATIONAL,"{'location': {'lat': 1.2835806, 'lng': 103.8431588}, 'viewport': {'northeast': {'lat': 1.285051480291502, 'lng': 103.8445681802915}, 'southwest': {'lat': 1.282353519708498, 'lng': 103.8418702197085}}}",,1.0,1.0,"['shopping_mall', 'point_of_interest', 'establishment']",217 New Bridge Road,,1.2835806,103.8431588
ChIJlYNxjgwZ2jERpgzyrQepTAk,Cross Street Exchange,OPERATIONAL,"{'location': {'lat': 1.2836335, 'lng': 103.8469622}, 'viewport': {'northeast': {'lat': 1.284668530291502, 'lng': 103.8481942}, 'southwest': {'lat': 1.281970569708498, 'lng': 103.8454738}}}",,1284.0,4.0,"['shopping_mall', 'point_of_interest', 'establishment']",18 Cross Street,,1.2836335,103.8469622
ChIJ32fXcgAZ2jERnNIRypYFNo8,Chinatown Complex Shopping Mall,OPERATIONAL,"{'location': {'lat': 1.2828487, 'lng': 103.8429351}, 'viewport': {'northeast': {'lat': 1.284211730291502, 'lng': 103.8444804802915}, 'southwest': {'lat': 1.281513769708498, 'lng': 103.8417825197085}}}",,1.0,4.0,"['shopping_mall', 'point_of_interest', 'establishment']","335 Smith Street, #1.282875 103.843167, Singapore",,1.2828487,103.8429351
ChIJZzMfDnMZ2jERZGYtqf2QiN8,New Bridge Centre,OPERATIONAL,"{'location': {'lat': 1.2829104, 'lng': 103.8425269}, 'viewport': {'northeast': {'lat': 1.284288180291502, 'lng': 103.8439265802915}, 'southwest': {'lat': 1.281590219708498, 'lng': 103.8412286197085}}}",,342.0,4.0,"['shopping_mall', 'point_of_interest', 'establishment']",336 Smith Street,,1.2829104,103.8425269
ChIJBdA3z3QZ2jERmV_pjB0ci0c,People's Park Centre,OPERATIONAL,"{'location': {'lat': 1.285631, 'lng': 103.8440929}, 'viewport': {'northeast': {'lat': 1.287204880291502, 'lng': 103.8456384802915}, 'southwest': {'lat': 1.284506919708498, 'lng': 103.8429405197085}}}",,2293.0,4.0,"['shopping_mall', 'point_of_interest', 'establishment']",101 Upper Cross Street,,1.285631,103.8440929
ChIJUbBZdnMZ2jERwGxmDy7DZg0,People's Park Complex,OPERATIONAL,"{'location': {'lat': 1.2841947, 'lng': 103.842484}, 'viewport': {'northeast': {'lat': 1.285277830291502, 'lng': 103.8439702302915}, 'southwest': {'lat': 1.282579869708498, 'lng': 103.8412722697085}}}",,3405.0,4.1,"['shopping_mall', 'point_of_interest', 'establishment']",1 Park Road,,1.2841947,103.842484
ChIJ8W0UHwAZ2jERPiAUP4JyR-M,Kada,OPERATIONAL,"{'location': {'lat': 1.2801972, 'lng': 103.845171}, 'viewport': {'northeast': {'lat': 1.281535480291502, 'lng': 103.8465263802915}, 'southwest': {'lat': 1.278837519708498, 'lng': 103.8438284197085}}}",,64.0,4.3,"['shopping_mall', 'point_of_interest', 'establishment']",5 Kadayanallur Street,,1.2801972,103.845171
ChIJ126ffHMZ2jERCtJItR3Ddm8,Boon Onn Jewellers,OPERATIONAL,"{'location': {'lat': 1.2842156, 'lng': 103.8424649}, 'viewport': {'northeast': {'lat': 1.285643930291502, 'lng': 103.8435569302915}, 'southwest': {'lat': 1.282945969708498, 'lng': 103.8408589697085}}}",,1.0,5.0,"['shopping_mall', 'point_of_interest', 'establishment']","No.1 Park Road, #03-K70 People's Park Complex",,1.2842156,103.8424649
ChIJVca-8NQZ2jER89jAeoxJ5Uc,Killiney @ People's Park Centre,OPERATIONAL,"{'location': {'lat': 1.2857619, 'lng': 103.8439529}, 'viewport': {'northeast': {'lat': 1.286964480291502, 'lng': 103.8454858302915}, 'southwest': {'lat': 1.284266519708498, 'lng': 103.8427878697085}}}",,8.0,2.4,"['cafe', 'shopping_mall', 'store', 'food', 'point_of_interest', 'establishment']","101 Upper Cross Street, #01-79 People's Park Centre",,1.2857619,103.8439529
ChIJex9WJ7kZ2jERX17R6EzHeVY,Celestial Time Pte Ltd,OPERATIONAL,"{'location': {'lat': 1.2858775, 'lng': 103.8441637}, 'viewport': {'northeast': {'lat': 1.287084880291502, 'lng': 103.8456077302915}, 'southwest': {'lat': 1.284386919708498, 'lng': 103.8429097697085}}}",,3.0,5.0,"['shopping_mall', 'store', 'point_of_interest', 'establishment']","101 Upper Cross Street, #01-36",,1.2858775,103.8441637
ChIJ79PHdgAZ2jERCdzXbGHaq_8,People PArk Complex Loading and Unloading Area,OPERATIONAL,"{'location': {'lat': 1.2840704, 'lng': 103.8419889}, 'viewport': {'northeast': {'lat': 1.285478880291502, 'lng': 103.8434091302915}, 'southwest': {'lat': 1.282780919708498, 'lng': 103.8407111697085}}}",,,,"['shopping_mall', 'point_of_interest', 'establishment']","Singapore, アウトラム, 1 Park Road",,1.2840704,103.8419889
ChIJOY_WUnUZ2jER1bs9EAqRB-k,Tanjong Alley,OPERATIONAL,"{'location': {'lat': 1.2794614, 'lng': 103.8440827}, 'viewport': {'northeast': {'lat': 1.280751630291502, 'lng': 103.8453355802915}, 'southwest': {'lat': 1.278053669708498, 'lng': 103.8426376197085}}}",,3.0,5.0,"['shopping_mall', 'restaurant', 'food', 'point_of_interest', 'establishment']",21 Tanjong Pagar Road,,1.2794614,103.8440827
ChIJyQ8DgWIZ2jERJyuRh581sco,Havelock 2,OPERATIONAL,"{'location': {'lat': 1.2871839, 'lng': 103.8451368}, 'viewport': {'northeast': {'lat': 1.288431780291502, 'lng': 103.8464517802915}, 'southwest': {'lat': 1.285733819708498, 'lng': 103.8437538197085}}}",,576.0,3.7,"['shopping_mall', 'point_of_interest', 'establishment']",2 Havelock Road,,1.2871839,103.8451368
ChIJF4dhQwAZ2jER3ar3zwN5l44,Havelock 2 Carpark,OPERATIONAL,"{'location': {'lat': 1.2875996, 'lng': 103.8451847}, 'viewport': {'northeast': {'lat': 1.288849380291502, 'lng': 103.8464151302915}, 'southwest': {'lat': 1.286151419708498, 'lng': 103.8437171697085}}}",,2.0,3.0,"['shopping_mall', 'point_of_interest', 'establishment']","50 Eu Tong Sen Street, Singapore",,1.2875996,103.8451847
ChIJtW42iQ0Z2jERKxGMWH5FiBE,CVC,OPERATIONAL,"{'location': {'lat': 1.2799751, 'lng': 103.8487011}, 'viewport': {'northeast': {'lat': 1.281366330291502, 'lng': 103.8499812302915}, 'southwest': {'lat': 1.278668369708498, 'lng': 103.8472832697085}}}",,,,"['shopping_mall', 'point_of_interest', 'establishment']",,,1.2799751,103.8487011
ChIJb_qbYwwZ2jERH9tIsjT57tg,Far East Square,OPERATIONAL,"{'location': {'lat': 1.2834477, 'lng': 103.8478431}, 'viewport': {'northeast': {'lat': 1.284510880291502, 'lng': 103.849881}, 'southwest': {'lat': 1.281812919708498, 'lng': 103.8465586}}}",,1132.0,4.1,"['shopping_mall', 'point_of_interest', 'establishment']",26 China Street,,1.2834477,103.8478431
ChIJU-W92g4Z2jERnDDzarAJWiE,OUE Link,OPERATIONAL,"{'location': {'lat': 1.2837249, 'lng': 103.8528699}, 'viewport': {'northeast': {'lat': 1.285074180291502, 'lng': 103.8543151302915}, 'southwest': {'lat': 1.282376219708498, 'lng': 103.8516171697085}}}",,24.0,3.9,"['shopping_mall', 'point_of_interest', 'establishment']",62 Collyer Quay,,1.2837249,103.8528699
ChIJSUZtKAwZ2jERUYaX1rnGjS8,De Ideaz Pte Ltd,OPERATIONAL,"{'location': {'lat': 1.2810642, 'lng': 103.8493203}, 'viewport': {'northeast': {'lat': 1.282448330291502, 'lng': 103.8506089302915}, 'southwest': {'lat': 1.279750369708498, 'lng': 103.8479109697085}}}",,7.0,2.7,"['shopping_mall', 'store', 'point_of_interest', 'establishment']","101 Cecil Street, Building 25-06 Tong Eng",,1.2810642,103.8493203
ChIJu1_G5ggZ2jERTrdta7SO3A8,One Fullerton,OPERATIONAL,"{'location': {'lat': 1.2860884, 'lng': 103.8540571}, 'viewport': {'northeast': {'lat': 1.287426230291502, 'lng': 103.8553888802915}, 'southwest': {'lat': 1.284728269708498, 'lng': 103.8526909197085}}}",,1560.0,4.5,"['shopping_mall', 'point_of_interest', 'establishment']",1 Fullerton Road,,1.2860884,103.8540571
ChIJkdUStooX2jER6qKW0ePeqd4,Vietnam Chamber of Commerce,OPERATIONAL,"{'location': {'lat': 1.2792463, 'lng': 103.8541121}, 'viewport': {'northeast': {'lat': 1.280804680291502, 'lng': 103.8552076802915}, 'southwest': {'lat': 1.278106719708498, 'lng': 103.8525097197085}}}",,5.0,5.0,"['shopping_mall', 'local_government_office', 'finance', 'point_of_interest', 'establishment']","10 Marina Boulevard, Tower 2, Level 39 Marina Bay Financial Centre, Singapore",,1.2792463,103.8541121
ChIJ2YVIvnAZ2jERYItHIZ0WQzA,Fusion Cosmetics Pte Ltd,OPERATIONAL,"{'location': {'lat': 1.2835175, 'lng': 103.8522903}, 'viewport': {'northeast': {'lat': 1.284825130291502, 'lng': 103.8537974302915}, 'southwest': {'lat': 1.282127169708498, 'lng': 103.8510994697085}}}",,3.0,5.0,"['department_store', 'shopping_mall', 'hair_care', 'clothing_store', 'store', 'point_of_interest', 'establishment']","11 Collyer Quay, #17-00 The Arcade",,1.2835175,103.8522903
ChIJXZONyw4Z2jER_t2qqsoJMEA,CIMB Plaza,OPERATIONAL,"{'location': {'lat': 1.2841169, 'lng': 103.8521428}, 'viewport': {'northeast': {'lat': 1.285244530291503, 'lng': 103.8530634802915}, 'southwest': {'lat': 1.282546569708498, 'lng': 103.8503655197085}}}",,211.0,4.3,"['shopping_mall', 'point_of_interest', 'establishment']",30 Raffles Place,,1.2841169,103.8521428
ChIJRTfDyg4Z2jERQsMawo73bEk,Change Alley,OPERATIONAL,"{'location': {'lat': 1.2844185, 'lng': 103.8518222}, 'viewport': {'northeast': {'lat': 1.285623280291502, 'lng': 103.8536105302915}, 'southwest': {'lat': 1.282925319708498, 'lng': 103.8509125697085}}}",,1.0,3.0,"['shopping_mall', 'point_of_interest', 'establishment']",11 Collyer Quay,,1.2844185,103.8518222
ChIJRx3TB0YZ2jER4p54eKXyoRQ,Raffles Xchange,OPERATIONAL,"{'location': {'lat': 1.2844808, 'lng': 103.8514561}, 'viewport': {'northeast': {'lat': 1.286050130291502, 'lng': 103.8528093802915}, 'southwest': {'lat': 1.283352169708498, 'lng': 103.8501114197085}}}",,81.0,4.1,"['shopping_mall', 'point_of_interest', 'establishment']",5 Raffles Place,,1.2844808,103.8514561
ChIJX2NsLyEZ2jERmAAlY31Vi3k,One Raffles Place,OPERATIONAL,"{'location': {'lat': 1.2843801, 'lng': 103.8510181}, 'viewport': {'northeast': {'lat': 1.285673780291502, 'lng': 103.8523631802915}, 'southwest': {'lat': 1.282975819708498, 'lng': 103.8496652197085}}}",,301.0,4.3,"['shopping_mall', 'point_of_interest', 'establishment']",1 Raffles Place,,1.2843801,103.8510181
ChIJGc0BcCEZ2jERvekh07q7a68,Monetrack,OPERATIONAL,"{'location': {'lat': 1.2844022, 'lng': 103.8509819}, 'viewport': {'northeast': {'lat': 1.285655430291502, 'lng': 103.8523617302915}, 'southwest': {'lat': 1.282957469708498, 'lng': 103.8496637697085}}}",,,,"['shopping_mall', 'point_of_interest', 'establishment']","1 Raffles Place, #27 03 One",,1.2844022,103.8509819
ChIJSy8ibeMZ2jERslMvcIkaCv0,18 Robinson,OPERATIONAL,"{'location': {'lat': 1.2817341, 'lng': 103.8504794}, 'viewport': {'northeast': {'lat': 1.283125880291502, 'lng': 103.8517717302915}, 'southwest': {'lat': 1.280427919708498, 'lng': 103.8490737697085}}}",,44.0,4.2,"['shopping_mall', 'general_contractor', 'point_of_interest', 'establishment']","18 Robinson Road, Singapore",,1.2817341,103.8504794
ChIJpYjrSQAZ2jERFnTrkkCk4kg,Normanthon,OPERATIONAL,"{'location': {'lat': 1.2811866, 'lng': 103.8503404}, 'viewport': {'northeast': {'lat': 1.282566380291502, 'lng': 103.8517076302915}, 'southwest': {'lat': 1.279868419708498, 'lng': 103.8490096697085}}}",,,,"['shopping_mall', 'point_of_interest', 'establishment']",,,1.2811866,103.8503404
ChIJVdNpMqoZ2jERJDlE6TWfubc,B collective (Dr. Bags & May Tailor),OPERATIONAL,"{'location': {'lat': 1.2806443, 'lng': 103.8538947}, 'viewport': {'northeast': {'lat': 1.282110380291502, 'lng': 103.8553163302915}, 'southwest': {'lat': 1.279412419708498, 'lng': 103.8526183697085}}}",,,,"['shopping_mall', 'point_of_interest', 'establishment']","8A Marina Boulevard, B2-32, Singapore",,1.2806443,103.8538947
ChIJG_m6Rw4Z2jERSePN1VWubwA,Toast Box (Marina Bay Link Mall),OPERATIONAL,"{'location': {'lat': 1.2797807, 'lng': 103.853046}, 'viewport': {'northeast': {'lat': 1.281022330291502, 'lng': 103.8545647802915}, 'southwest': {'lat': 1.278324369708498, 'lng': 103.8518668197085}}}",1.0,495.0,4.2,"['cafe', 'shopping_mall', 'store', 'point_of_interest', 'food', 'establishment']","Blk 8A Marina Boulevard, B2-04A",,1.2797807,103.853046
ChIJl-F2TR8Z2jER47tQRVbi1oU,Luxe Mall,OPERATIONAL,"{'location': {'lat': 1.2798906, 'lng': 103.854546}, 'viewport': {'northeast': {'lat': 1.281451380291502, 'lng': 103.8557319802915}, 'southwest': {'lat': 1.278753419708498, 'lng': 103.8530340197085}}}",,,,"['shopping_mall', 'point_of_interest', 'establishment']",Singapore,,1.2798906,103.854546
ChIJHXaCig4Z2jER6U4Qy8aX7Co,Marina Bay Link Mall,OPERATIONAL,"{'location': {'lat': 1.2795303, 'lng': 103.8543391}, 'viewport': {'northeast': {'lat': 1.280788980291502, 'lng': 103.85577375}, 'southwest': {'lat': 1.278091019708498, 'lng': 103.85305395}}}",,3679.0,4.3,"['shopping_mall', 'point_of_interest', 'establishment']",8A Marina Boulevard,,1.2795303,103.8543391
ChIJJeFJzWsZ2jERRYJT25O5jCY,Licete Global,CLOSED_TEMPORARILY,"{'location': {'lat': 1.2792463, 'lng': 103.8541121}, 'viewport': {'northeast': {'lat': 1.280826580291502, 'lng': 103.8551575802915}, 'southwest': {'lat': 1.278128619708498, 'lng': 103.8524596197085}}}",,,,"['shopping_mall', 'point_of_interest', 'establishment']","10 Marina Boulevard, Singapore",True,1.2792463,103.8541121
ChIJtW42iQ0Z2jERKxGMWH5FiBE,CVC,OPERATIONAL,"{'location': {'lat': 1.2799751, 'lng': 103.8487011}, 'viewport': {'northeast': {'lat': 1.281366330291502, 'lng': 103.8499812302915}, 'southwest': {'lat': 1.278668369708498, 'lng': 103.8472832697085}}}",,,,"['shopping_mall', 'point_of_interest', 'establishment']",,,1.2799751,103.8487011
ChIJc7cw_rwZ2jERbDsbsW5DHUI,The Offshore,OPERATIONAL,"{'location': {'lat': 1.2862861, 'lng': 103.848824}, 'viewport': {'northeast': {'lat': 1.287525330291502, 'lng': 103.8501182302915}, 'southwest': {'lat': 1.284827369708498, 'lng': 103.8474202697085}}}",,3.0,4.7,"['shopping_mall', 'point_of_interest', 'establishment']","13 North Canal Road, #11,12",,1.2862861,103.848824
ChIJuzb5KOYZ2jERLUHxHfP7ApY,The Shoppes at Marina Bay Sands,OPERATIONAL,"{'location': {'lat': 1.2836889, 'lng': 103.8591846}, 'viewport': {'northeast': {'lat': 1.285278730291502, 'lng': 103.86111085}, 'southwest': {'lat': 1.282580769708498, 'lng': 103.85837705}}}",,765.0,4.6,"['shopping_mall', 'point_of_interest', 'establishment']",10 Bayfront Avenue,,1.2836889,103.8591846
ChIJg1KokxgZ2jERyhkL4J1XOHQ,Sands Rewards Lifestyle Counter (above Sampan Rides),OPERATIONAL,"{'location': {'lat': 1.2837742, 'lng': 103.8591946}, 'viewport': {'northeast': {'lat': 1.285293480291502, 'lng': 103.86114275}, 'southwest': {'lat': 1.282595519708498, 'lng': 103.85828215}}}",,2.0,3.0,"['shopping_mall', 'point_of_interest', 'establishment']","The Shoppes, B1, 10 Bayfront Avenue, Marina Bay Sands",,1.2837742,103.8591946
ChIJL6UnlR0Z2jERpRs_aWEstCc,Sands Lifestyle Counter (Hotel Lobby),OPERATIONAL,"{'location': {'lat': 1.2830909, 'lng': 103.8604184}, 'viewport': {'northeast': {'lat': 1.284056230291502, 'lng': 103.8615412302915}, 'southwest': {'lat': 1.281358269708498, 'lng': 103.8588432697085}}}",,13.0,4.5,"['shopping_mall', 'lodging', 'point_of_interest', 'establishment']","10 Bayfront Avenue, Marina Bay Sands, Hotel Tower 1, Lobby",,1.2830909,103.8604184
ChIJGVhj0yAZ2jERec1X95PKunM,Sands Lifestyle Counter (The Shoppes B2),OPERATIONAL,"{'location': {'lat': 1.2858174, 'lng': 103.8599703}, 'viewport': {'northeast': {'lat': 1.28662395, 'lng': 103.8615183302915}, 'southwest': {'lat': 1.28340975, 'lng': 103.8588203697085}}}",,9.0,4.1,"['shopping_mall', 'store', 'point_of_interest', 'establishment']","10 Bayfront Avenue, Marina Bay Sands, The Shoppes, Level B2 Near Digital Light Canvas",,1.2858174,103.8599703
ChIJfX5QOPwa2jERkNEpB0VrbMo,Jk Village,OPERATIONAL,"{'location': {'lat': 1.2926117, 'lng': 103.7684075}, 'viewport': {'northeast': {'lat': 1.294003630291502, 'lng': 103.7697014302915}, 'southwest': {'lat': 1.291305669708498, 'lng': 103.7670034697085}}}",,7.0,5.0,"['shopping_mall', 'point_of_interest', 'establishment']","Clementi Road, 6",,1.2926117,103.7684075
ChIJyZR0zqsb2jERMHnnhwh5qOs,Fruit Wholesale Pasir Panjang,OPERATIONAL,"{'location': {'lat': 1.286429, 'lng': 103.7774781}, 'viewport': {'northeast': {'lat': 1.287720680291502, 'lng': 103.7787832802915}, 'southwest': {'lat': 1.285022719708498, 'lng': 103.7760853197085}}}",,2.0,4.5,"['shopping_mall', 'point_of_interest', 'establishment']","12 Pasir Panjang, Wholesale Centre, Singapore",,1.286429,103.7774781
ChIJISBn6awb2jERRuKkH9QGSUk,Sparkle,OPERATIONAL,"{'location': {'lat': 1.2878364, 'lng': 103.7827555}, 'viewport': {'northeast': {'lat': 1.288971580291502, 'lng': 103.7838482802915}, 'southwest': {'lat': 1.286273619708498, 'lng': 103.7811503197085}}}",,29.0,3.9,"['shopping_mall', 'point_of_interest', 'establishment']",45 Science Park Road,,1.2878364,103.7827555
ChIJj4Iq5U0b2jERa3haKDQc7K8,Cintech IV,OPERATIONAL,"{'location': {'lat': 1.2895456, 'lng': 103.790484}, 'viewport': {'northeast': {'lat': 1.290966530291502, 'lng': 103.7918619302915}, 'southwest': {'lat': 1.288268569708498, 'lng': 103.7891639697085}}}",,6.0,4.7,"['shopping_mall', 'point_of_interest', 'establishment']","79 Science Park Drive, Singapore",,1.2895456,103.790484
ChIJuUXzGrMb2jERGj-8yzwcIuQ,The Oasis,OPERATIONAL,"{'location': {'lat': 1.2878135, 'lng': 103.7904914}, 'viewport': {'northeast': {'lat': 1.289248030291502, 'lng': 103.7916915302915}, 'southwest': {'lat': 1.286550069708498, 'lng': 103.7889935697085}}}",,257.0,4.0,"['shopping_mall', 'point_of_interest', 'establishment']","87 Science Park Drive, Singapore",,1.2878135,103.7904914
ChIJVXvuuswb2jER8BZU_kcS2ds,Anchorpoint,OPERATIONAL,"{'location': {'lat': 1.2887706, 'lng': 103.8050762}, 'viewport': {'northeast': {'lat': 1.290295130291502, 'lng': 103.8066960802915}, 'southwest': {'lat': 1.287597169708498, 'lng': 103.8039981197085}}}",,3231.0,3.9,"['shopping_mall', 'point_of_interest', 'establishment']",370 Alexandra Road,,1.2887706,103.8050762
ChIJ_1WtiMwb2jERZKYs6ALsFxc,Alexandra Central,OPERATIONAL,"{'location': {'lat': 1.2871335, 'lng': 103.8053617}, 'viewport': {'northeast': {'lat': 1.288595930291502, 'lng': 103.8065003302915}, 'southwest': {'lat': 1.285897969708498, 'lng': 103.8038023697085}}}",,1848.0,3.7,"['shopping_mall', 'point_of_interest', 'establishment']",321 Alexandra Road,,1.2871335,103.8053617
ChIJoUPrFcAb2jER--rytUjvjMM,ToyBros,OPERATIONAL,"{'location': {'lat': 1.2875526, 'lng': 103.8034685}, 'viewport': {'northeast': {'lat': 1.289166130291502, 'lng': 103.8048717802915}, 'southwest': {'lat': 1.286468169708498, 'lng': 103.8021738197085}}}",,15.0,4.7,"['shopping_mall', 'point_of_interest', 'establishment']","Queensway, #02-03 Queensway Shopping Centre, Singapore",,1.2875526,103.8034685
ChIJpeuce8sb2jERad66-Hwmus8,Queensway Shopping Centre,OPERATIONAL,"{'location': {'lat': 1.2875526, 'lng': 103.8034685}, 'viewport': {'northeast': {'lat': 1.288960380291502, 'lng': 103.8050967302915}, 'southwest': {'lat': 1.286262419708498, 'lng': 103.8023987697085}}}",,3681.0,4.2,"['shopping_mall', 'point_of_interest', 'establishment']","1 Queensway, Singapore",,1.2875526,103.8034685
ChIJXyKlNAAb2jER8_u2d0wyjs0,Shop & Eat @ Mei Ling Heights,OPERATIONAL,"{'location': {'lat': 1.2926721, 'lng': 103.802625}, 'viewport': {'northeast': {'lat': 1.293928830291502, 'lng': 103.8039718302915}, 'southwest': {'lat': 1.291230869708498, 'lng': 103.8012738697085}}}",,,,"['shopping_mall', 'point_of_interest', 'establishment']","158 Mei Ling Street, Singapore",,1.2926721,103.802625
ChIJc9jAagAb2jERbnL-LUEewvg,Alexandra Village,OPERATIONAL,"{'location': {'lat': 1.2866279, 'lng': 103.8036456}, 'viewport': {'northeast': {'lat': 1.288025130291502, 'lng': 103.8049666802915}, 'southwest': {'lat': 1.285327169708498, 'lng': 103.8022687197085}}}",,1.0,5.0,"['shopping_mall', 'point_of_interest', 'establishment']","123 Bukit Merah Lane 1, Singapore",,1.2866279,103.8036456
ChIJnW8KW-gb2jER1-hHWNDs5hc,NEWLINK SPORTS #02-34 / 36 ( BADMINTON RACQUET AND INDOOR COURT SHOES ),OPERATIONAL,"{'location': {'lat': 1.286443, 'lng': 103.803663}, 'viewport': {'northeast': {'lat': 1.287991780291502, 'lng': 103.8049399302915}, 'southwest': {'lat': 1.285293819708498, 'lng': 103.8022419697085}}}",,1.0,1.0,"['shopping_mall', 'point_of_interest', 'establishment']",1 Queensway,,1.286443,103.803663
ChIJcdUlky0a2jERHuQ4kJzl9vA,Dawson Place,OPERATIONAL,"{'location': {'lat': 1.2926472, 'lng': 103.8107529}, 'viewport': {'northeast': {'lat': 1.293969080291502, 'lng': 103.8121936802915}, 'southwest': {'lat': 1.291271119708498, 'lng': 103.8094957197085}}}",,1406.0,3.9,"['shopping_mall', 'point_of_interest', 'establishment']",57 Dawson Road,,1.2926472,103.8107529
ChIJI3E1YHAG2jERsf1aIMwCDMY,SBAHAVV,OPERATIONAL,"{'location': {'lat': 1.2910719, 'lng': 103.8148303}, 'viewport': {'northeast': {'lat': 1.292430530291502, 'lng': 103.8161158302915}, 'southwest': {'lat': 1.289732569708498, 'lng': 103.8134178697085}}}",,,,"['shopping_mall', 'home_goods_store', 'electronics_store', 'store', 'point_of_interest', 'establishment']",2 Leng Kee Road,,1.2910719,103.8148303
ChIJI3E1YHAG2jERsf1aIMwCDMY,SBAHAVV,OPERATIONAL,"{'location': {'lat': 1.2910719, 'lng': 103.8148303}, 'viewport': {'northeast': {'lat': 1.292430530291502, 'lng': 103.8161158302915}, 'southwest': {'lat': 1.289732569708498, 'lng': 103.8134178697085}}}",,,,"['shopping_mall', 'electronics_store', 'home_goods_store', 'store', 'point_of_interest', 'establishment']",2 Leng Kee Road,,1.2910719,103.8148303
ChIJ4735CAAb2jER-6u8qcpDjNc,Redhill Mall,OPERATIONAL,"{'location': {'lat': 1.2878337, 'lng': 103.8187886}, 'viewport': {'northeast': {'lat': 1.289315030291502, 'lng': 103.8201114802915}, 'southwest': {'lat': 1.286617069708498, 'lng': 103.8174135197085}}}",,,,"['shopping_mall', 'point_of_interest', 'establishment']","80 Redhill Lane, Singapore",,1.2878337,103.8187886
ChIJLZ9oWoEZ2jERwxPWGD_Zpnw,Valley Point Shopping Centre,OPERATIONAL,"{'location': {'lat': 1.2933441, 'lng': 103.8271408}, 'viewport': {'northeast': {'lat': 1.294527030291502, 'lng': 103.8281258302915}, 'southwest': {'lat': 1.291829069708498, 'lng': 103.8254278697085}}}",,1454.0,4.0,"['shopping_mall', 'point_of_interest', 'establishment']",491 River Valley Road,,1.2933441,103.8271408
ChIJe5qyMnkZ2jERYRN7QP_pCMQ,Tiong Bahru Plaza,OPERATIONAL,"{'location': {'lat': 1.2866535, 'lng': 103.8271459}, 'viewport': {'northeast': {'lat': 1.288009930291502, 'lng': 103.8288301302915}, 'southwest': {'lat': 1.285311969708498, 'lng': 103.8261321697085}}}",,8798.0,4.2,"['shopping_mall', 'point_of_interest', 'establishment']","302 Tiong Bahru Road, Singapore",,1.2866535,103.8271459
ChIJE_8vrWgZ2jERVb5c-hooi-8,Steve & Leif Valley Point,OPERATIONAL,"{'location': {'lat': 1.2932768, 'lng': 103.8273223}, 'viewport': {'northeast': {'lat': 1.294664430291502, 'lng': 103.8287214302915}, 'southwest': {'lat': 1.291966469708498, 'lng': 103.8260234697085}}}",,,,"['shopping_mall', 'point_of_interest', 'establishment']","491 River Valley Road, #01-04 Valley Point Shopping Centre",,1.2932768,103.8273223
ChIJB14IQoMZ2jERyjiLXouuJe0,Great World,OPERATIONAL,"{'location': {'lat': 1.2936417, 'lng': 103.8319293}, 'viewport': {'northeast': {'lat': 1.294896630291502, 'lng': 103.8330022302915}, 'southwest': {'lat': 1.292198669708498, 'lng': 103.8303042697085}}}",,7399.0,4.3,"['shopping_mall', 'point_of_interest', 'establishment']",1 Kim Seng Promenade,,1.2936417,103.8319293
ChIJtQHxVAAZ2jERVHxORuAdP94,Great World City Lobby & MRT Drop Off,OPERATIONAL,"{'location': {'lat': 1.2927921, 'lng': 103.8323366}, 'viewport': {'northeast': {'lat': 1.294184130291502, 'lng': 103.8338130802915}, 'southwest': {'lat': 1.291486169708498, 'lng': 103.8311151197085}}}",,,,"['shopping_mall', 'point_of_interest', 'establishment']",,,1.2927921,103.8323366
ChIJI9rQlH8Z2jER0KT6DpK-ZAQ,Concorde Shopping Centre,OPERATIONAL,"{'location': {'lat': 1.2891229, 'lng': 103.8341407}, 'viewport': {'northeast': {'lat': 1.290218430291502, 'lng': 103.8359607302915}, 'southwest': {'lat': 1.287520469708498, 'lng': 103.8332627697085}}}",,11.0,4.1,"['shopping_mall', 'point_of_interest', 'establishment']","317 Outram Road, #02-29",,1.2891229,103.8341407
ChIJqUhwYgAZ2jERwvuegycra3g,Sabbir hossen,OPERATIONAL,"{'location': {'lat': 1.2920309, 'lng': 103.8342609}, 'viewport': {'northeast': {'lat': 1.293308180291502, 'lng': 103.8357118802915}, 'southwest': {'lat': 1.290610219708498, 'lng': 103.8330139197085}}}",,,,"['shopping_mall', 'point_of_interest', 'establishment']",80 Kim Seng Road,,1.2920309,103.8342609
ChIJlYODbp0Z2jER72E6GXzYISY,Waterfront Plaza,OPERATIONAL,"{'location': {'lat': 1.2901255, 'lng': 103.835203}, 'viewport': {'northeast': {'lat': 1.291371930291502, 'lng': 103.8364524302915}, 'southwest': {'lat': 1.288673969708498, 'lng': 103.8337544697085}}}",,28.0,4.0,"['shopping_mall', 'point_of_interest', 'establishment']",390A Havelock Road,,1.2901255,103.835203
ChIJE_8vrWgZ2jERVb5c-hooi-8,Steve & Leif Valley Point,OPERATIONAL,"{'location': {'lat': 1.2932768, 'lng': 103.8273223}, 'viewport': {'northeast': {'lat': 1.294664430291502, 'lng': 103.8287214302915}, 'southwest': {'lat': 1.291966469708498, 'lng': 103.8260234697085}}}",,,,"['shopping_mall', 'point_of_interest', 'establishment']","491 River Valley Road, #01-04 Valley Point Shopping Centre",,1.2932768,103.8273223
ChIJlwOQpJ4Z2jER5EGYnv1VcvE,New Bahru,OPERATIONAL,"{'location': {'lat': 1.2928106, 'lng': 103.8386992}, 'viewport': {'northeast': {'lat': 1.294080280291502, 'lng': 103.8402670802915}, 'southwest': {'lat': 1.291382319708498, 'lng': 103.8375691197085}}}",,436.0,4.0,"['shopping_mall', 'point_of_interest', 'establishment']","46 Kim Yam Road, New Bahru",,1.2928106,103.8386992
ChIJEzjF7Z0Z2jERpFVPccJ8qek,seven Eleven 769,OPERATIONAL,"{'location': {'lat': 1.2897877, 'lng': 103.8379202}, 'viewport': {'northeast': {'lat': 1.291083830291502, 'lng': 103.8393402302915}, 'southwest': {'lat': 1.288385869708498, 'lng': 103.8366422697085}}}",,8.0,4.5,"['shopping_mall', 'point_of_interest', 'establishment']",Singapore River 769 Opp TWH,,1.2897877,103.8379202
ChIJlYODbp0Z2jER72E6GXzYISY,Waterfront Plaza,OPERATIONAL,"{'location': {'lat': 1.2901255, 'lng': 103.835203}, 'viewport': {'northeast': {'lat': 1.291371930291502, 'lng': 103.8364524302915}, 'southwest': {'lat': 1.288673969708498, 'lng': 103.8337544697085}}}",,28.0,4.0,"['shopping_mall', 'point_of_interest', 'establishment']",390A Havelock Road,,1.2901255,103.835203
ChIJI9rQlH8Z2jER0KT6DpK-ZAQ,Concorde Shopping Centre,OPERATIONAL,"{'location': {'lat': 1.2891229, 'lng': 103.8341407}, 'viewport': {'northeast': {'lat': 1.290218430291502, 'lng': 103.8359607302915}, 'southwest': {'lat': 1.287520469708498, 'lng': 103.8332627697085}}}",,11.0,4.1,"['shopping_mall', 'point_of_interest', 'establishment']","317 Outram Road, #02-29",,1.2891229,103.8341407
ChIJqUhwYgAZ2jERwvuegycra3g,Sabbir hossen,OPERATIONAL,"{'location': {'lat': 1.2920309, 'lng': 103.8342609}, 'viewport': {'northeast': {'lat': 1.293308180291502, 'lng': 103.8357118802915}, 'southwest': {'lat': 1.290610219708498, 'lng': 103.8330139197085}}}",,,,"['shopping_mall', 'point_of_interest', 'establishment']",80 Kim Seng Road,,1.2920309,103.8342609
ChIJnXwAOKAZ2jERAs-MHs1aDgI,Clarke Quay,OPERATIONAL,"{'location': {'lat': 1.2906024, 'lng': 103.8464742}, 'viewport': {'northeast': {'lat': 1.292176980291502, 'lng': 103.8477618302915}, 'southwest': {'lat': 1.289479019708498, 'lng': 103.8450638697085}}}",,43992.0,4.5,"['shopping_mall', 'tourist_attraction', 'point_of_interest', 'establishment']",3 River Valley Road,,1.2906024,103.8464742
ChIJ18C-mwoZ2jERlpSawcucgk0,Clarke Quay Central,OPERATIONAL,"{'location': {'lat': 1.2890252, 'lng': 103.8466098}, 'viewport': {'northeast': {'lat': 1.290300530291502, 'lng': 103.8476586802915}, 'southwest': {'lat': 1.287602569708498, 'lng': 103.8449607197085}}}",,10952.0,4.3,"['shopping_mall', 'point_of_interest', 'establishment']",6 Eu Tong Sen Street,,1.2890252,103.8466098
ChIJ1aJWIZ8Z2jERTCHI96-9fNQ,UE Square,OPERATIONAL,"{'location': {'lat': 1.2921679, 'lng': 103.8426697}, 'viewport': {'northeast': {'lat': 1.293551430291502, 'lng': 103.8442912302915}, 'southwest': {'lat': 1.290853469708498, 'lng': 103.8415932697085}}}",,1568.0,3.9,"['shopping_mall', 'point_of_interest', 'establishment']","81 Clemenceau Avenue, Singapore",,1.2921679,103.8426697
ChIJBXC7TAsZ2jERdpAi-2uczMQ,Chinatown Point,OPERATIONAL,"{'location': {'lat': 1.2852093, 'lng': 103.8447228}, 'viewport': {'northeast': {'lat': 1.286175930291502, 'lng': 103.8458059802915}, 'southwest': {'lat': 1.283477969708498, 'lng': 103.8431080197085}}}",2.0,19622.0,4.2,"['shopping_mall', 'point_of_interest', 'establishment']","133 New Bridge Road, Singapore",,1.2852093,103.8447228
ChIJcb-bmQoZ2jER51uvsJrLHEY,The Central,OPERATIONAL,"{'location': {'lat': 1.2886219, 'lng': 103.8467655}, 'viewport': {'northeast': {'lat': 1.290124780291502, 'lng': 103.8481637302915}, 'southwest': {'lat': 1.287426819708498, 'lng': 103.8454657697085}}}",,245.0,4.3,"['shopping_mall', 'real_estate_agency', 'point_of_interest', 'establishment']",8 Eu Tong Sen Street,,1.2886219,103.8467655
ChIJleHRO_wZ2jERDtVEaVmZLxw,Riverside Point,OPERATIONAL,"{'location': {'lat': 1.2894373, 'lng': 103.8441063}, 'viewport': {'northeast': {'lat': 1.290933380291502, 'lng': 103.8454330802915}, 'southwest': {'lat': 1.288235419708498, 'lng': 103.8427351197085}}}",,321.0,4.3,"['shopping_mall', 'point_of_interest', 'establishment']",30 Merchant Road,,1.2894373,103.8441063
ChIJF4dhQwAZ2jER3ar3zwN5l44,Havelock 2 Carpark,OPERATIONAL,"{'location': {'lat': 1.2875996, 'lng': 103.8451847}, 'viewport': {'northeast': {'lat': 1.288849380291502, 'lng': 103.8464151302915}, 'southwest': {'lat': 1.286151419708498, 'lng': 103.8437171697085}}}",,2.0,3.0,"['shopping_mall', 'point_of_interest', 'establishment']","50 Eu Tong Sen Street, Singapore",,1.2875996,103.8451847
ChIJs3oNr74Z2jERL2CxyTQ9bKE,Central Square,OPERATIONAL,"{'location': {'lat': 1.2882882, 'lng': 103.8432735}, 'viewport': {'northeast': {'lat': 1.289783430291502, 'lng': 103.8444676302915}, 'southwest': {'lat': 1.287085469708498, 'lng': 103.8417696697085}}}",,5.0,2.8,"['shopping_mall', 'point_of_interest', 'establishment']","20 Havelock Road, Singapore",,1.2882882,103.8432735
ChIJyQ8DgWIZ2jERJyuRh581sco,Havelock 2,OPERATIONAL,"{'location': {'lat': 1.2871839, 'lng': 103.8451368}, 'viewport': {'northeast': {'lat': 1.288431780291502, 'lng': 103.8464517802915}, 'southwest': {'lat': 1.285733819708498, 'lng': 103.8437538197085}}}",,576.0,3.7,"['shopping_mall', 'point_of_interest', 'establishment']",2 Havelock Road,,1.2871839,103.8451368
ChIJye-SJgAZ2jERh5ppDgXPh0Y,UE Square Carpark B entrance,OPERATIONAL,"{'location': {'lat': 1.2923951, 'lng': 103.8427413}, 'viewport': {'northeast': {'lat': 1.293841980291502, 'lng': 103.8440363802915}, 'southwest': {'lat': 1.291144019708498, 'lng': 103.8413384197085}}}",,,,"['shopping_mall', 'point_of_interest', 'establishment']","81A Clemenceau Avenue, Singapore",,1.2923951,103.8427413
ChIJHywT8CgZ2jERtYLxa8fg7OY,The Riverwalk,OPERATIONAL,"{'location': {'lat': 1.2891375, 'lng': 103.8483462}, 'viewport': {'northeast': {'lat': 1.290469330291502, 'lng': 103.8496424802915}, 'southwest': {'lat': 1.287771369708498, 'lng': 103.8469445197085}}}",,295.0,4.4,"['shopping_mall', 'point_of_interest', 'establishment']","20 Upper Circular Road, #02- 21A The Riverwalk",,1.2891375,103.8483462
ChIJex9WJ7kZ2jERX17R6EzHeVY,Celestial Time Pte Ltd,OPERATIONAL,"{'location': {'lat': 1.2858775, 'lng': 103.8441637}, 'viewport': {'northeast': {'lat': 1.287084880291502, 'lng': 103.8456077302915}, 'southwest': {'lat': 1.284386919708498, 'lng': 103.8429097697085}}}",,3.0,5.0,"['shopping_mall', 'store', 'point_of_interest', 'establishment']","101 Upper Cross Street, #01-36",,1.2858775,103.8441637
ChIJVca-8NQZ2jER89jAeoxJ5Uc,Killiney @ People's Park Centre,OPERATIONAL,"{'location': {'lat': 1.2857619, 'lng': 103.8439529}, 'viewport': {'northeast': {'lat': 1.286964480291502, 'lng': 103.8454858302915}, 'southwest': {'lat': 1.284266519708498, 'lng': 103.8427878697085}}}",,8.0,2.4,"['cafe', 'shopping_mall', 'store', 'food', 'point_of_interest', 'establishment']","101 Upper Cross Street, #01-79 People's Park Centre",,1.2857619,103.8439529
ChIJBdA3z3QZ2jERmV_pjB0ci0c,People's Park Centre,OPERATIONAL,"{'location': {'lat': 1.285631, 'lng': 103.8440929}, 'viewport': {'northeast': {'lat': 1.287204880291502, 'lng': 103.8456384802915}, 'southwest': {'lat': 1.284506919708498, 'lng': 103.8429405197085}}}",,2293.0,4.0,"['shopping_mall', 'point_of_interest', 'establishment']",101 Upper Cross Street,,1.285631,103.8440929
ChIJDQn9K6EZ2jERGfy2lsTL4gM,Peninsula Shopping Complex Singapore,OPERATIONAL,"{'location': {'lat': 1.2918776, 'lng': 103.8500267}, 'viewport': {'northeast': {'lat': 1.293385030291502, 'lng': 103.8515157302915}, 'southwest': {'lat': 1.290687069708498, 'lng': 103.8488177697085}}}",,4708.0,3.9,"['shopping_mall', 'department_store', 'shoe_store', 'electronics_store', 'store', 'point_of_interest', 'establishment']",3 Coleman Street,,1.2918776,103.8500267
ChIJUU3oI6EZ2jERfSBkAFaonKA,Lai Loy Jewellery,OPERATIONAL,"{'location': {'lat': 1.29133, 'lng': 103.850074}, 'viewport': {'northeast': {'lat': 1.292687780291502, 'lng': 103.8515633302915}, 'southwest': {'lat': 1.289989819708498, 'lng': 103.8488653697085}}}",,,,"['shopping_mall', 'point_of_interest', 'establishment']","1 Coleman Street, #02-22 The Adelphi",,1.29133,103.850074
ChIJRXd7yaYZ2jERQH3RSOQbtPI,Inkprompt Pte Ltd,OPERATIONAL,"{'location': {'lat': 1.2923526, 'lng': 103.8509667}, 'viewport': {'northeast': {'lat': 1.293735780291502, 'lng': 103.8524121302915}, 'southwest': {'lat': 1.291037819708498, 'lng': 103.8497141697085}}}",,1.0,5.0,"['shopping_mall', 'point_of_interest', 'establishment']","111 North Bridge Road, Singapore",,1.2923526,103.8509667
ChIJCeMaMKYZ2jER7P0rzkEtRbE,CityLink,OPERATIONAL,"{'location': {'lat': 1.2913005, 'lng': 103.8551976}, 'viewport': {'northeast': {'lat': 1.292607980291502, 'lng': 103.8565287802915}, 'southwest': {'lat': 1.289910019708498, 'lng': 103.8538308197085}}}",,1605.0,4.3,"['shopping_mall', 'point_of_interest', 'establishment']",1 Raffles Link,,1.2913005,103.8551976
ChIJu1_G5ggZ2jERTrdta7SO3A8,One Fullerton,OPERATIONAL,"{'location': {'lat': 1.2860884, 'lng': 103.8540571}, 'viewport': {'northeast': {'lat': 1.287426230291502, 'lng': 103.8553888802915}, 'southwest': {'lat': 1.284728269708498, 'lng': 103.8526909197085}}}",,1560.0,4.5,"['shopping_mall', 'point_of_interest', 'establishment']",1 Fullerton Road,,1.2860884,103.8540571
ChIJofx2MKEZ2jERlaZeNQxPQt8,Excelsior Shopping Centre,OPERATIONAL,"{'location': {'lat': 1.2920724, 'lng': 103.8501955}, 'viewport': {'northeast': {'lat': 1.293549580291502, 'lng': 103.8515073302915}, 'southwest': {'lat': 1.290851619708498, 'lng': 103.8488093697085}}}",,374.0,3.8,"['shopping_mall', 'point_of_interest', 'establishment']","5 Coleman Street, #03-27, Singapore",,1.2920724,103.8501955
ChIJ41zoKKcZ2jERaJwPDSfX8zM,The Adelphi,OPERATIONAL,"{'location': {'lat': 1.2911845, 'lng': 103.8512167}, 'viewport': {'northeast': {'lat': 1.292382780291502, 'lng': 103.8527265302915}, 'southwest': {'lat': 1.289684819708498, 'lng': 103.8500285697085}}}",,1330.0,3.9,"['shopping_mall', 'point_of_interest', 'establishment']",1 Coleman Street,,1.2911845,103.8512167
ChIJX2ILD2gZ2jEREprPMpgqOiU,The Wildflower Edit,OPERATIONAL,"{'location': {'lat': 1.2913131, 'lng': 103.8512472}, 'viewport': {'northeast': {'lat': 1.292727730291502, 'lng': 103.8527403802915}, 'southwest': {'lat': 1.290029769708498, 'lng': 103.8500424197085}}}",,,,"['shopping_mall', 'point_of_interest', 'food', 'establishment']","1 Coleman Street, #05-05 The Adelphi, Singapore",,1.2913131,103.8512472
ChIJkT7rsPAZ2jERYUWXee_2_1Y,Aquaplus,OPERATIONAL,"{'location': {'lat': 1.2913131, 'lng': 103.8512472}, 'viewport': {'northeast': {'lat': 1.292727730291502, 'lng': 103.8527403802915}, 'southwest': {'lat': 1.290029769708498, 'lng': 103.8500424197085}}}",,,,"['shopping_mall', 'point_of_interest', 'establishment']","1 Coleman Street, #07-02B",,1.2913131,103.8512472
ChIJqz4D-d8Z2jERj4HjyaJtGvI,Funan,OPERATIONAL,"{'location': {'lat': 1.2912647, 'lng': 103.8501932}, 'viewport': {'northeast': {'lat': 1.292552380291502, 'lng': 103.8516772302915}, 'southwest': {'lat': 1.289854419708498, 'lng': 103.8489792697085}}}",,7707.0,4.4,"['shopping_mall', 'point_of_interest', 'establishment']","107 North Bridge Road, Singapore",,1.2912647,103.8501932
ChIJl0Gl28QZ2jERJGBI-d3IzvA,Peninsula Plaza,OPERATIONAL,"{'location': {'lat': 1.2922871, 'lng': 103.8508504}, 'viewport': {'northeast': {'lat': 1.293568480291502, 'lng': 103.8519909302915}, 'southwest': {'lat': 1.290870519708498, 'lng': 103.8492929697085}}}",,354.0,4.0,"['shopping_mall', 'point_of_interest', 'establishment']",111 North Bridge Road,,1.2922871,103.8508504
ChIJAchhaaEZ2jERGeRWmpGKIBM,Poh Mal,OPERATIONAL,"{'location': {'lat': 1.2922978, 'lng': 103.8508719}, 'viewport': {'northeast': {'lat': 1.293694730291502, 'lng': 103.8523732302915}, 'southwest': {'lat': 1.290996769708498, 'lng': 103.8496752697085}}}",,2.0,3.0,"['shopping_mall', 'point_of_interest', 'establishment']","111 North Bridge Road, #05-48 Peninsula Plaza, Singapore",,1.2922978,103.8508719
ChIJMdeyIh0Z2jERWG4G2VwWCEw,MA Studios,OPERATIONAL,"{'location': {'lat': 1.2923407, 'lng': 103.8508826}, 'viewport': {'northeast': {'lat': 1.293712980291502, 'lng': 103.8523785802915}, 'southwest': {'lat': 1.291015019708498, 'lng': 103.8496806197085}}}",,,,"['shopping_mall', 'point_of_interest', 'establishment']","111 North Bridge Road, #20-05 PENINSULA PLAZA",,1.2923407,103.8508826
ChIJCWP3UFkZ2jERERn-t3KVkv0,Cherry Shan Skincare and Cosmetics (Singapore),OPERATIONAL,"{'location': {'lat': 1.2923407, 'lng': 103.8508826}, 'viewport': {'northeast': {'lat': 1.293712980291502, 'lng': 103.8523785802915}, 'southwest': {'lat': 1.291015019708498, 'lng': 103.8496806197085}}}",,,,"['shopping_mall', 'point_of_interest', 'establishment']","111 North Bridge Road, #04-20 Peninsula Plaza",,1.2923407,103.8508826
ChIJL87xbzAZ2jERsNix4fvbLwg,Lucky Win Shop,OPERATIONAL,"{'location': {'lat': 1.2923407, 'lng': 103.8508826}, 'viewport': {'northeast': {'lat': 1.293712980291502, 'lng': 103.8523683302915}, 'southwest': {'lat': 1.291015019708498, 'lng': 103.8496703697085}}}",,,,"['shopping_mall', 'point_of_interest', 'establishment']","111 North Bridge Road, #02-65C Peninsula Plaza",,1.2923407,103.8508826
ChIJDerMOiEZ2jERJL7thfbvrTM,Xiao Yan Zi Confectionery,OPERATIONAL,"{'location': {'lat': 1.2918956, 'lng': 103.8502112}, 'viewport': {'northeast': {'lat': 1.293512830291502, 'lng': 103.8513560302915}, 'southwest': {'lat': 1.290814869708498, 'lng': 103.8486580697085}}}",,1.0,5.0,"['shopping_mall', 'store', 'point_of_interest', 'food', 'establishment']",3 Coleman street ￼ suite 1888-T Singapore 179804,,1.2918956,103.8502112
ChIJX-7BvmoZ2jERiTTzNs6zJnc,Metachain Pte. Ltd.,OPERATIONAL,"{'location': {'lat': 1.291922, 'lng': 103.8501259}, 'viewport': {'northeast': {'lat': 1.293526030291502, 'lng': 103.8513206802915}, 'southwest': {'lat': 1.290828069708498, 'lng': 103.8486227197085}}}",,,,"['shopping_mall', 'point_of_interest', 'establishment']","3 Coleman Street, #03-24 Peninsula Shopping Complex, Singapore",,1.291922,103.8501259
ChIJifd_iKIZ2jERpzU9zVhZFzk,Theta2Beta Pte. Ltd.,OPERATIONAL,"{'location': {'lat': 1.291922, 'lng': 103.8501259}, 'viewport': {'northeast': {'lat': 1.293526030291502, 'lng': 103.8513206802915}, 'southwest': {'lat': 1.290828069708498, 'lng': 103.8486227197085}}}",,,,"['shopping_mall', 'point_of_interest', 'establishment']","3 Coleman Street, #03-24",,1.291922,103.8501259
ChIJ4UnKpqYZ2jERhkj2F-wL-qI,Capitol Singapore,OPERATIONAL,"{'location': {'lat': 1.2929876, 'lng': 103.8511619}, 'viewport': {'northeast': {'lat': 1.294335280291502, 'lng': 103.8524883302915}, 'southwest': {'lat': 1.291637319708498, 'lng': 103.8497903697085}}}",,3818.0,4.2,"['shopping_mall', 'point_of_interest', 'establishment']",13 Stamford Road,,1.2929876,103.8511619
ChIJ__9PNqEZ2jERbnzJN5JGPjg,City Hall Square,OPERATIONAL,"{'location': {'lat': 1.2925036, 'lng': 103.850124}, 'viewport': {'northeast': {'lat': 1.293948680291502, 'lng': 103.8515843302915}, 'southwest': {'lat': 1.291250719708498, 'lng': 103.8488863697085}}}",,124.0,4.3,"['shopping_mall', 'point_of_interest', 'establishment']",10 Coleman Street,,1.2925036,103.850124
ChIJ0yZITwAZ2jER8pojgXqwN04,Capitol Building Parking,OPERATIONAL,"{'location': {'lat': 1.2931552, 'lng': 103.8508113}, 'viewport': {'northeast': {'lat': 1.294235680291502, 'lng': 103.8523314802915}, 'southwest': {'lat': 1.291537719708498, 'lng': 103.8496335197085}}}",,,,"['shopping_mall', 'point_of_interest', 'establishment']",Capitol building,,1.2931552,103.8508113
ChIJ5QaXI4kZ2jER6yB_aFocFMw,Raffles City,OPERATIONAL,"{'location': {'lat': 1.2933477, 'lng': 103.8529838}, 'viewport': {'northeast': {'lat': 1.295179980291502, 'lng': 103.8551073}, 'southwest': {'lat': 1.292482019708498, 'lng': 103.8519217}}}",,10014.0,4.4,"['shopping_mall', 'point_of_interest', 'establishment']",252 North Bridge Road,,1.2933477,103.8529838
ChIJCS4OeQAZ2jERjBrcPUojirA,Longevity World Singapore,OPERATIONAL,"{'location': {'lat': 1.2929288, 'lng': 103.8500402}, 'viewport': {'northeast': {'lat': 1.294408030291502, 'lng': 103.8513783302915}, 'southwest': {'lat': 1.291710069708498, 'lng': 103.8486803697085}}}",,,,"['shopping_mall', 'point_of_interest', 'establishment']","10 Coleman Street, Singapore",,1.2929288,103.8500402
ChIJvyG9IXcZ2jER5w0OttwuS3I,Arcade @ The Capitol Kempinski,OPERATIONAL,"{'location': {'lat': 1.2935289, 'lng': 103.8516952}, 'viewport': {'northeast': {'lat': 1.294978830291502, 'lng': 103.8531069802915}, 'southwest': {'lat': 1.292280869708498, 'lng': 103.8504090197085}}}",,4.0,5.0,"['shopping_mall', 'point_of_interest', 'establishment']","15 Stamford Road, Singapore",,1.2935289,103.8516952
ChIJHywT8CgZ2jERtYLxa8fg7OY,The Riverwalk,OPERATIONAL,"{'location': {'lat': 1.2891375, 'lng': 103.8483462}, 'viewport': {'northeast': {'lat': 1.290469330291502, 'lng': 103.8496424802915}, 'southwest': {'lat': 1.287771369708498, 'lng': 103.8469445197085}}}",,295.0,4.4,"['shopping_mall', 'point_of_interest', 'establishment']","20 Upper Circular Road, #02- 21A The Riverwalk",,1.2891375,103.8483462
ChIJLyJv4poZ2jERkbeYhmNIZ9k,Zane Pte Ltd,OPERATIONAL,"{'location': {'lat': 1.2937868, 'lng': 103.8527761}, 'viewport': {'northeast': {'lat': 1.295398280291502, 'lng': 103.8540925302915}, 'southwest': {'lat': 1.292700319708498, 'lng': 103.8513945697085}}}",,17.0,4.8,"['shopping_mall', 'store', 'health', 'point_of_interest', 'food', 'establishment']","250 North Bridge Road, #14-01 Raffles City Tower",,1.2937868,103.8527761
ChIJg3Da6ssZ2jERH-1dbXrgOAE,Esplanade Mall,OPERATIONAL,"{'location': {'lat': 1.28976, 'lng': 103.8560406}, 'viewport': {'northeast': {'lat': 1.291046930291502, 'lng': 103.8575200302915}, 'southwest': {'lat': 1.288348969708498, 'lng': 103.8548220697085}}}",2.0,1652.0,4.5,"['shopping_mall', 'cafe', 'bar', 'restaurant', 'point_of_interest', 'food', 'establishment']",8 Raffles Avenue,,1.28976,103.8560406
ChIJO8Uw9Y0Z2jERhAsd0Bix-Qo,Shen Xi Imperial Soup 沈希第一补汤 @ Raffles City Shopping Centre 莱佛士城购物中心,OPERATIONAL,"{'location': {'lat': 1.2940129, 'lng': 103.8531375}, 'viewport': {'northeast': {'lat': 1.295511330291502, 'lng': 103.8542767802915}, 'southwest': {'lat': 1.292813369708498, 'lng': 103.8515788197085}}}",,13.0,3.8,"['point_of_interest', 'shopping_mall', 'establishment']","The Food Place @ Raffles City Shopping Centre | 252 North Bridge Rd |, #03-15/16/17, |",,1.2940129,103.8531375
ChIJj1GfBaYZ2jER9VdyOe0KKcY,Esplanade Xchange,OPERATIONAL,"{'location': {'lat': 1.2927628, 'lng': 103.8559555}, 'viewport': {'northeast': {'lat': 1.294119030291502, 'lng': 103.8572998802915}, 'southwest': {'lat': 1.291421069708498, 'lng': 103.8546019197085}}}",,226.0,4.0,"['shopping_mall', 'point_of_interest', 'establishment']",90 Bras Basah Road,,1.2927628,103.8559555
ChIJvcww8aMZ2jERk26KU8oktC0,Stamford Court,OPERATIONAL,"{'location': {'lat': 1.2944822, 'lng': 103.850122}, 'viewport': {'northeast': {'lat': 1.295451280291502, 'lng': 103.8515446302915}, 'southwest': {'lat': 1.292753319708498, 'lng': 103.8488466697085}}}",,166.0,4.1,"['shopping_mall', 'point_of_interest', 'establishment']","61 Stamford Road, Singapore",,1.2944822,103.850122
ChIJc7cw_rwZ2jERbDsbsW5DHUI,The Offshore,OPERATIONAL,"{'location': {'lat': 1.2862861, 'lng': 103.848824}, 'viewport': {'northeast': {'lat': 1.287525330291502, 'lng': 103.8501182302915}, 'southwest': {'lat': 1.284827369708498, 'lng': 103.8474202697085}}}",,3.0,4.7,"['shopping_mall', 'point_of_interest', 'establishment']","13 North Canal Road, #11,12",,1.2862861,103.848824
ChIJo_z7IqkZ2jERE1tkSZmYR8o,Millenia Walk,OPERATIONAL,"{'location': {'lat': 1.2916585, 'lng': 103.8597629}, 'viewport': {'northeast': {'lat': 1.29520225, 'lng': 103.8615038802915}, 'southwest': {'lat': 1.29032325, 'lng': 103.8588059197085}}}",,6010.0,4.2,"['shopping_mall', 'point_of_interest', 'establishment']",9 Raffles Boulevard,,1.2916585,103.8597629
ChIJn6U8y4wZ2jER_8KxahKQTP8,Cosmos Commercial Pte Ltd,OPERATIONAL,"{'location': {'lat': 1.2929475, 'lng': 103.8572403}, 'viewport': {'northeast': {'lat': 1.294212180291502, 'lng': 103.8583929302915}, 'southwest': {'lat': 1.291514219708498, 'lng': 103.8556949697085}}}",,,,"['jewelry_store', 'shopping_mall', 'store', 'point_of_interest', 'establishment']","1 Raffles Boulevard Suntec City, Convention Hall Level 3, Room, #306",,1.2929475,103.8572403
ChIJCeMaMKYZ2jER7P0rzkEtRbE,CityLink,OPERATIONAL,"{'location': {'lat': 1.2913005, 'lng': 103.8551976}, 'viewport': {'northeast': {'lat': 1.292607980291502, 'lng': 103.8565287802915}, 'southwest': {'lat': 1.289910019708498, 'lng': 103.8538308197085}}}",,1605.0,4.3,"['shopping_mall', 'point_of_interest', 'establishment']",1 Raffles Link,,1.2913005,103.8551976
ChIJ9UKUtjsZ2jER-VszUURb3LI,Marina Square,OPERATIONAL,"{'location': {'lat': 1.2911534, 'lng': 103.8576778}, 'viewport': {'northeast': {'lat': 1.292905830291502, 'lng': 103.8589896802915}, 'southwest': {'lat': 1.290207869708498, 'lng': 103.8562917197085}}}",,17086.0,4.3,"['shopping_mall', 'point_of_interest', 'establishment']",6 Raffles Boulevard,,1.2911534,103.8576778
ChIJX_ayNfMZ2jERLi-9Ikl-N1I,The Toy Folks,OPERATIONAL,"{'location': {'lat': 1.2909494, 'lng': 103.8574391}, 'viewport': {'northeast': {'lat': 1.291971030291502, 'lng': 103.8587657802915}, 'southwest': {'lat': 1.289273069708498, 'lng': 103.8560678197085}}}",,145.0,5.0,"['shopping_mall', 'book_store', 'store', 'point_of_interest', 'establishment']","6 Raffles Boulevard, #02 - 283 Marina Square",,1.2909494,103.8574391
ChIJ4--zrIYZ2jERZFSpyvl-pZg,THREEPPY,OPERATIONAL,"{'location': {'lat': 1.2915254, 'lng': 103.8570232}, 'viewport': {'northeast': {'lat': 1.293284280291502, 'lng': 103.8585827302915}, 'southwest': {'lat': 1.290586319708498, 'lng': 103.8558847697085}}}",,198.0,4.1,"['shopping_mall', 'point_of_interest', 'establishment']","6 Raffles Boulevard, #03-111, Singapore",,1.2915254,103.8570232
ChIJSzNJhUwZ2jERFPqtcMnTdCQ,"Daily&Co - andar, MONGZE, Klug, TITAD",OPERATIONAL,"{'location': {'lat': 1.2917755, 'lng': 103.8566958}, 'viewport': {'northeast': {'lat': 1.293232430291502, 'lng': 103.8577126302915}, 'southwest': {'lat': 1.290534469708498, 'lng': 103.8550146697085}}}",,71.0,4.5,"['shopping_mall', 'point_of_interest', 'establishment']","02-110 Marina Square, 6 Raffles Boulevard, #2nd Floor, Singapore",,1.2917755,103.8566958
ChIJg3Da6ssZ2jERH-1dbXrgOAE,Esplanade Mall,OPERATIONAL,"{'location': {'lat': 1.28976, 'lng': 103.8560406}, 'viewport': {'northeast': {'lat': 1.291046930291502, 'lng': 103.8575200302915}, 'southwest': {'lat': 1.288348969708498, 'lng': 103.8548220697085}}}",2.0,1652.0,4.5,"['shopping_mall', 'cafe', 'bar', 'restaurant', 'point_of_interest', 'food', 'establishment']",8 Raffles Avenue,,1.28976,103.8560406
ChIJj1GfBaYZ2jER9VdyOe0KKcY,Esplanade Xchange,OPERATIONAL,"{'location': {'lat': 1.2927628, 'lng': 103.8559555}, 'viewport': {'northeast': {'lat': 1.294119030291502, 'lng': 103.8572998802915}, 'southwest': {'lat': 1.291421069708498, 'lng': 103.8546019197085}}}",,226.0,4.0,"['shopping_mall', 'point_of_interest', 'establishment']",90 Bras Basah Road,,1.2927628,103.8559555
ChIJGVhj0yAZ2jERec1X95PKunM,Sands Lifestyle Counter (The Shoppes B2),OPERATIONAL,"{'location': {'lat': 1.2858174, 'lng': 103.8599703}, 'viewport': {'northeast': {'lat': 1.28662395, 'lng': 103.8615183302915}, 'southwest': {'lat': 1.28340975, 'lng': 103.8588203697085}}}",,9.0,4.1,"['shopping_mall', 'store', 'point_of_interest', 'establishment']","10 Bayfront Avenue, Marina Bay Sands, The Shoppes, Level B2 Near Digital Light Canvas",,1.2858174,103.8599703
ChIJnV7ap5QZ2jERFx_pIpvWYNI,myFirst Suntec Experience Store,OPERATIONAL,"{'location': {'lat': 1.2948817, 'lng': 103.8593592}, 'viewport': {'northeast': {'lat': 1.296187430291502, 'lng': 103.8606917802915}, 'southwest': {'lat': 1.293489469708498, 'lng': 103.8579938197085}}}",,80.0,4.9,"['shopping_mall', 'point_of_interest', 'establishment']","3 Temasek Boulevard, B1 Fountain Court",,1.2948817,103.8593592
ChIJfX5QOPwa2jERkNEpB0VrbMo,Jk Village,OPERATIONAL,"{'location': {'lat': 1.2926117, 'lng': 103.7684075}, 'viewport': {'northeast': {'lat': 1.294003630291502, 'lng': 103.7697014302915}, 'southwest': {'lat': 1.291305669708498, 'lng': 103.7670034697085}}}",,7.0,5.0,"['shopping_mall', 'point_of_interest', 'establishment']","Clementi Road, 6",,1.2926117,103.7684075
ChIJ27uORH8b2jER5QyoVQN2wd0,Fushionpolis connexis building,OPERATIONAL,"{'location': {'lat': 1.2989175, 'lng': 103.7876488}, 'viewport': {'northeast': {'lat': 1.300488430291502, 'lng': 103.7888853802915}, 'southwest': {'lat': 1.297790469708498, 'lng': 103.7861874197085}}}",,12.0,4.2,"['shopping_mall', 'point_of_interest', 'establishment']","1 Fusionopolis Way, B1-09/10",,1.2989175,103.7876488
ChIJ9yq_RwAb2jERQr8p7SOHuvY,QMall (U/C),OPERATIONAL,"{'location': {'lat': 1.2970812, 'lng': 103.8050669}, 'viewport': {'northeast': {'lat': 1.298525580291502, 'lng': 103.8064953802915}, 'southwest': {'lat': 1.295827619708498, 'lng': 103.8037974197085}}}",,,,"['shopping_mall', 'point_of_interest', 'establishment']",Margaret Drive,,1.2970812,103.8050669
ChIJXyKlNAAb2jER8_u2d0wyjs0,Shop & Eat @ Mei Ling Heights,OPERATIONAL,"{'location': {'lat': 1.2926721, 'lng': 103.802625}, 'viewport': {'northeast': {'lat': 1.293928830291502, 'lng': 103.8039718302915}, 'southwest': {'lat': 1.291230869708498, 'lng': 103.8012738697085}}}",,,,"['shopping_mall', 'point_of_interest', 'establishment']","158 Mei Ling Street, Singapore",,1.2926721,103.802625
ChIJcdUlky0a2jERHuQ4kJzl9vA,Dawson Place,OPERATIONAL,"{'location': {'lat': 1.2926472, 'lng': 103.8107529}, 'viewport': {'northeast': {'lat': 1.293969080291502, 'lng': 103.8121936802915}, 'southwest': {'lat': 1.291271119708498, 'lng': 103.8094957197085}}}",,1406.0,3.9,"['shopping_mall', 'point_of_interest', 'establishment']",57 Dawson Road,,1.2926472,103.8107529
ChIJPej94uob2jERWr6_MFRfiR8,Loewen By Dempsey Hill,OPERATIONAL,"{'location': {'lat': 1.3014856, 'lng': 103.8117784}, 'viewport': {'northeast': {'lat': 1.302965830291502, 'lng': 103.8130736802915}, 'southwest': {'lat': 1.300267869708498, 'lng': 103.8103757197085}}}",,,,"['shopping_mall', 'point_of_interest', 'establishment']","72 Loewen Road, Singapore",,1.3014856,103.8117784
ChIJ9yq_RwAb2jERQr8p7SOHuvY,QMall (U/C),OPERATIONAL,"{'location': {'lat': 1.2970812, 'lng': 103.8050669}, 'viewport': {'northeast': {'lat': 1.298525580291502, 'lng': 103.8064953802915}, 'southwest': {'lat': 1.295827619708498, 'lng': 103.8037974197085}}}",,,,"['shopping_mall', 'point_of_interest', 'establishment']",Margaret Drive,,1.2970812,103.8050669
ChIJLZ9oWoEZ2jERwxPWGD_Zpnw,Valley Point Shopping Centre,OPERATIONAL,"{'location': {'lat': 1.2933441, 'lng': 103.8271408}, 'viewport': {'northeast': {'lat': 1.294527030291502, 'lng': 103.8281258302915}, 'southwest': {'lat': 1.291829069708498, 'lng': 103.8254278697085}}}",,1454.0,4.0,"['shopping_mall', 'point_of_interest', 'establishment']",491 River Valley Road,,1.2933441,103.8271408
ChIJG8ALX8QZ2jER16_eYH9P3Rc,ViryaByUrbi,OPERATIONAL,"{'location': {'lat': 1.29956, 'lng': 103.825762}, 'viewport': {'northeast': {'lat': 1.300891680291502, 'lng': 103.8271025302915}, 'southwest': {'lat': 1.298193719708498, 'lng': 103.8244045697085}}}",,,,"['shopping_mall', 'point_of_interest', 'establishment']",Online,,1.29956,103.825762
ChIJB14IQoMZ2jERyjiLXouuJe0,Great World,OPERATIONAL,"{'location': {'lat': 1.2936417, 'lng': 103.8319293}, 'viewport': {'northeast': {'lat': 1.294896630291502, 'lng': 103.8330022302915}, 'southwest': {'lat': 1.292198669708498, 'lng': 103.8303042697085}}}",,7399.0,4.3,"['shopping_mall', 'point_of_interest', 'establishment']",1 Kim Seng Promenade,,1.2936417,103.8319293
ChIJtQHxVAAZ2jERVHxORuAdP94,Great World City Lobby & MRT Drop Off,OPERATIONAL,"{'location': {'lat': 1.2927921, 'lng': 103.8323366}, 'viewport': {'northeast': {'lat': 1.294184130291502, 'lng': 103.8338130802915}, 'southwest': {'lat': 1.291486169708498, 'lng': 103.8311151197085}}}",,,,"['shopping_mall', 'point_of_interest', 'establishment']",,,1.2927921,103.8323366
ChIJHSrGJ5EZ2jERTzbUyme7KuQ,313@somerset,OPERATIONAL,"{'location': {'lat': 1.3010451, 'lng': 103.8385792}, 'viewport': {'northeast': {'lat': 1.302155480291502, 'lng': 103.8393538802915}, 'southwest': {'lat': 1.299457519708498, 'lng': 103.8366559197085}}}",,16119.0,4.4,"['shopping_mall', 'point_of_interest', 'establishment']",313 Orchard Road,,1.3010451,103.8385792
ChIJQfAL2JYZ2jER9v06BxkNw1k,Orchard Central,OPERATIONAL,"{'location': {'lat': 1.3007639, 'lng': 103.8397236}, 'viewport': {'northeast': {'lat': 1.301889380291502, 'lng': 103.8413060302915}, 'southwest': {'lat': 1.299191419708498, 'lng': 103.8386080697085}}}",,11631.0,4.3,"['shopping_mall', 'point_of_interest', 'establishment']",181 Orchard Road,,1.3007639,103.8397236
ChIJe3kMD5EZ2jERFGYVqhnc6DY,Cineleisure,OPERATIONAL,"{'location': {'lat': 1.3016866, 'lng': 103.8365735}, 'viewport': {'northeast': {'lat': 1.303061730291502, 'lng': 103.8379486302915}, 'southwest': {'lat': 1.300363769708498, 'lng': 103.8352506697085}}}",,5272.0,4.1,"['shopping_mall', 'point_of_interest', 'establishment']",8 Grange Road,,1.3016866,103.8365735
ChIJRZ1c0JYZ2jER6cpyNpOyf3M,The Centrepoint,OPERATIONAL,"{'location': {'lat': 1.3012253, 'lng': 103.8398652}, 'viewport': {'northeast': {'lat': 1.302701330291502, 'lng': 103.8413999802915}, 'southwest': {'lat': 1.300003369708498, 'lng': 103.8387020197085}}}",,5668.0,4.1,"['shopping_mall', 'point_of_interest', 'establishment']",176 Orchard Road,,1.3012253,103.8398652
ChIJ0_ui6JAZ2jERiJ7sQ2YVMZs,111 Somerset,OPERATIONAL,"{'location': {'lat': 1.3001972, 'lng': 103.8373493}, 'viewport': {'northeast': {'lat': 1.301548680291502, 'lng': 103.8386726802915}, 'southwest': {'lat': 1.298850719708498, 'lng': 103.8359747197085}}}",,1280.0,4.2,"['shopping_mall', 'point_of_interest', 'establishment']",111 Somerset Road,,1.3001972,103.8373493
ChIJfZmGM5EZ2jERgDzwv5rdA-U,Orchardgateway,OPERATIONAL,"{'location': {'lat': 1.3007002, 'lng': 103.8394225}, 'viewport': {'northeast': {'lat': 1.302091480291502, 'lng': 103.8408343802915}, 'southwest': {'lat': 1.299393519708498, 'lng': 103.8381364197085}}}",,4211.0,4.3,"['shopping_mall', 'point_of_interest', 'establishment']",277 Orchard Road,,1.3007002,103.8394225
ChIJlwOQpJ4Z2jER5EGYnv1VcvE,New Bahru,OPERATIONAL,"{'location': {'lat': 1.2928106, 'lng': 103.8386992}, 'viewport': {'northeast': {'lat': 1.294080280291502, 'lng': 103.8402670802915}, 'southwest': {'lat': 1.291382319708498, 'lng': 103.8375691197085}}}",,436.0,4.0,"['shopping_mall', 'point_of_interest', 'establishment']","46 Kim Yam Road, New Bahru",,1.2928106,103.8386992
ChIJRQygL5EZ2jERZ7Lr-7AsLqQ,Recoil - 313@Somerset,OPERATIONAL,"{'location': {'lat': 1.3009665, 'lng': 103.8384727}, 'viewport': {'northeast': {'lat': 1.302106830291502, 'lng': 103.8397756302915}, 'southwest': {'lat': 1.299408869708498, 'lng': 103.8370776697085}}}",,17.0,4.8,"['shopping_mall', 'clothing_store', 'store', 'point_of_interest', 'establishment']","313 Orchard Road, #04-04A",,1.3009665,103.8384727
ChIJcanrLJEZ2jERQ-tctWDOKls,Things I Luv,OPERATIONAL,"{'location': {'lat': 1.3006638, 'lng': 103.8400725}, 'viewport': {'northeast': {'lat': 1.302127280291502, 'lng': 103.8414270302915}, 'southwest': {'lat': 1.299429319708498, 'lng': 103.8387290697085}}}",,38.0,2.8,"['shopping_mall', 'point_of_interest', 'establishment']","277 Orchard Road, #02-05/06 Orchardgateway, Singapore",,1.3006638,103.8400725
ChIJ777jJQoZ2jERUSqAyBp_F2Y,Orchard Shopping Centre,OPERATIONAL,"{'location': {'lat': 1.3015019, 'lng': 103.8378442}, 'viewport': {'northeast': {'lat': 1.302959180291502, 'lng': 103.8392412302915}, 'southwest': {'lat': 1.300261219708498, 'lng': 103.8365432697085}}}",,97.0,4.2,"['shopping_mall', 'point_of_interest', 'establishment']",321 Orchard Road,,1.3015019,103.8378442
ChIJY27C0cAZ2jERWP8Shb94Qck,Orchard Building,OPERATIONAL,"{'location': {'lat': 1.301489, 'lng': 103.8373178}, 'viewport': {'northeast': {'lat': 1.302764580291502, 'lng': 103.8385259802915}, 'southwest': {'lat': 1.300066619708498, 'lng': 103.8358280197085}}}",,158.0,4.4,"['shopping_mall', 'point_of_interest', 'establishment']",1 Grange Road,,1.301489,103.8373178
ChIJG40-zG0Z2jERkSKkkf5nYK0,Brahm Centre @ *SCAPE,OPERATIONAL,"{'location': {'lat': 1.3010543, 'lng': 103.835846}, 'viewport': {'northeast': {'lat': 1.302510030291502, 'lng': 103.8370025802915}, 'southwest': {'lat': 1.299812069708498, 'lng': 103.8343046197085}}}",,,,"['shopping_mall', 'point_of_interest', 'establishment']","2 Orchard Link, #04-06",,1.3010543,103.835846
ChIJ28w5SZkZ2jERvKuSRvLIhnU,gateway@emerald,OPERATIONAL,"{'location': {'lat': 1.301615, 'lng': 103.8388269}, 'viewport': {'northeast': {'lat': 1.302838830291502, 'lng': 103.8401238302915}, 'southwest': {'lat': 1.300140869708498, 'lng': 103.8374258697085}}}",,5.0,4.8,"['shopping_mall', 'point_of_interest', 'establishment']","218 Orchard Road, #218",,1.301615,103.8388269
ChIJM_WCNLQZ2jERWYIp87UbmzQ,Midpoint Orchard,OPERATIONAL,"{'location': {'lat': 1.3018235, 'lng': 103.838442}, 'viewport': {'northeast': {'lat': 1.303024330291502, 'lng': 103.8397871802915}, 'southwest': {'lat': 1.300326369708498, 'lng': 103.8370892197085}}}",,11.0,4.5,"['shopping_mall', 'point_of_interest', 'establishment']","220 Orchard Road, Midpoint Orchard, Singapore",,1.3018235,103.838442
ChIJR1Fyfr0Z2jERzwO-AZiJ-HM,Plaza Singapura,OPERATIONAL,"{'location': {'lat': 1.3000678, 'lng': 103.8447831}, 'viewport': {'northeast': {'lat': 1.30155065, 'lng': 103.8468654}, 'southwest': {'lat': 1.29829685, 'lng': 103.843303}}}",,21715.0,4.4,"['shopping_mall', 'point_of_interest', 'establishment']",68 Orchard Road,,1.3000678,103.8447831
ChIJCwc9Ib0Z2jERGKkaxcJzE0c,The Cathay,OPERATIONAL,"{'location': {'lat': 1.2995083, 'lng': 103.8477778}, 'viewport': {'northeast': {'lat': 1.300816030291502, 'lng': 103.8490353302915}, 'southwest': {'lat': 1.298118069708498, 'lng': 103.8463373697085}}}",,2974.0,4.1,"['shopping_mall', 'point_of_interest', 'establishment']",2 Handy Road,,1.2995083,103.8477778
ChIJy4WXYL0Z2jERbg8hQW40fYs,The Atrium@Orchard,OPERATIONAL,"{'location': {'lat': 1.3001167, 'lng': 103.8455364}, 'viewport': {'northeast': {'lat': 1.300966480291502, 'lng': 103.8471026302915}, 'southwest': {'lat': 1.298268519708498, 'lng': 103.8444046697085}}}",,409.0,4.2,"['shopping_mall', 'point_of_interest', 'establishment']",60A Orchard Road,,1.3001167,103.8455364
ChIJI1dZ4pYZ2jERpbJ9D-5uLjA,Laurel Leaf 月桂葉,OPERATIONAL,"{'location': {'lat': 1.3008695, 'lng': 103.84273}, 'viewport': {'northeast': {'lat': 1.302461680291502, 'lng': 103.8439748802915}, 'southwest': {'lat': 1.299763719708498, 'lng': 103.8412769197085}}}",,10.0,5.0,"['beauty_salon', 'shopping_mall', 'hair_care', 'point_of_interest', 'establishment']","100 Orchard Road, #02-21 Concorde Hotel & Shopping Mall",,1.3008695,103.84273
ChIJc6zIfr0Z2jERGV6qS7VI6Gw,Stereo - The Headphone Concept Store @ Plaza Singapura,OPERATIONAL,"{'location': {'lat': 1.3005118, 'lng': 103.8448198}, 'viewport': {'northeast': {'lat': 1.301838980291502, 'lng': 103.8464363302915}, 'southwest': {'lat': 1.299141019708498, 'lng': 103.8437383697085}}}",,4154.0,4.9,"['store', 'shopping_mall', 'electronics_store', 'home_goods_store', 'point_of_interest', 'establishment']","68, #04-06 Orchard Road, Plaza Singapura",,1.3005118,103.8448198
ChIJj63eEZgZ2jERlsPDIn44YlY,Singapore Shopping Centre,OPERATIONAL,"{'location': {'lat': 1.2981622, 'lng': 103.844132}, 'viewport': {'northeast': {'lat': 1.299400280291502, 'lng': 103.8454516802915}, 'southwest': {'lat': 1.296702319708498, 'lng': 103.8427537197085}}}",,429.0,3.8,"['shopping_mall', 'point_of_interest', 'establishment']",190 Clemenceau Avenue,,1.2981622,103.844132
ChIJNYPiU3wZ2jERYaUMHbCTAlc,Staytion Lifestyle Centre (Dhoby Ghaut MRT),OPERATIONAL,"{'location': {'lat': 1.298535, 'lng': 103.8459742}, 'viewport': {'northeast': {'lat': 1.300100080291502, 'lng': 103.8473733302915}, 'southwest': {'lat': 1.297402119708498, 'lng': 103.8446753697085}}}",,24.0,4.1,"['shopping_mall', 'point_of_interest', 'establishment']","11 Orchard Road, B1-10 Dhoby Ghaut MRT Station",,1.298535,103.8459742
ChIJeQxt0aAZ2jERgISpjenAS7M,FILA (Plaza Singapura),OPERATIONAL,"{'location': {'lat': 1.2998316, 'lng': 103.8455226}, 'viewport': {'northeast': {'lat': 1.301406580291502, 'lng': 103.8468146302915}, 'southwest': {'lat': 1.298708619708498, 'lng': 103.8441166697085}}}",,5.0,4.8,"['shopping_mall', 'point_of_interest', 'establishment']","60 Orchard Road, #01-05",,1.2998316,103.8455226
ChIJb1BvJAAZ2jERXCtZJtvWDzM,Plaza Singapore Carpark,OPERATIONAL,"{'location': {'lat': 1.300573, 'lng': 103.845281}, 'viewport': {'northeast': {'lat': 1.301915480291502, 'lng': 103.8466750302915}, 'southwest': {'lat': 1.299217519708498, 'lng': 103.8439770697085}}}",,,,"['shopping_mall', 'point_of_interest', 'establishment']",Handy Road,,1.300573,103.845281
ChIJB5uaq5cZ2jERlKfLlpFMZc8,Concorde Shopping Mall,OPERATIONAL,"{'location': {'lat': 1.3006019, 'lng': 103.8420681}, 'viewport': {'northeast': {'lat': 1.302169130291502, 'lng': 103.8430487302915}, 'southwest': {'lat': 1.299471169708498, 'lng': 103.8403507697085}}}",,1575.0,3.8,"['shopping_mall', 'point_of_interest', 'establishment']",100 Orchard Road,,1.3006019,103.8420681
ChIJM0JJJq8Z2jERvjOEhrQcT4o,United House,OPERATIONAL,"{'location': {'lat': 1.3010722, 'lng': 103.8424588}, 'viewport': {'northeast': {'lat': 1.302312730291502, 'lng': 103.8436376302915}, 'southwest': {'lat': 1.299614769708498, 'lng': 103.8409396697085}}}",,17.0,2.4,"['shopping_mall', 'point_of_interest', 'establishment']",20 Kramat Lane,,1.3010722,103.8424588
ChIJj7TW9LoZ2jERQgNlXkKhASQ,Bugis Street,OPERATIONAL,"{'location': {'lat': 1.3001991, 'lng': 103.8552015}, 'viewport': {'northeast': {'lat': 1.301905630291502, 'lng': 103.8562656802915}, 'southwest': {'lat': 1.299207669708498, 'lng': 103.8535677197085}}}",,21209.0,4.4,"['shopping_mall', 'point_of_interest', 'establishment']",261 Victoria Street,,1.3001991,103.8552015
ChIJCwc9Ib0Z2jERGKkaxcJzE0c,The Cathay,OPERATIONAL,"{'location': {'lat': 1.2995083, 'lng': 103.8477778}, 'viewport': {'northeast': {'lat': 1.300816030291502, 'lng': 103.8490353302915}, 'southwest': {'lat': 1.298118069708498, 'lng': 103.8463373697085}}}",,2974.0,4.1,"['shopping_mall', 'point_of_interest', 'establishment']",2 Handy Road,,1.2995083,103.8477778
ChIJwSNJ77oZ2jERuX8Bl5bU2tI,Bugis+,OPERATIONAL,"{'location': {'lat': 1.2995955, 'lng': 103.8542191}, 'viewport': {'northeast': {'lat': 1.300750830291502, 'lng': 103.8554192802915}, 'southwest': {'lat': 1.298052869708498, 'lng': 103.8527213197085}}}",,12070.0,4.3,"['shopping_mall', 'point_of_interest', 'establishment']",201 Victoria Street,,1.2995955,103.8542191
ChIJtxaD8KQZ2jERgCmvEt9PdiU,Bras Basah Complex,OPERATIONAL,"{'location': {'lat': 1.2966145, 'lng': 103.8540002}, 'viewport': {'northeast': {'lat': 1.297880880291502, 'lng': 103.8550778302915}, 'southwest': {'lat': 1.295182919708498, 'lng': 103.8523798697085}}}",,7881.0,4.1,"['shopping_mall', 'book_store', 'jewelry_store', 'store', 'point_of_interest', 'establishment']",231 Bain Street,,1.2966145,103.8540002
ChIJ8SlfersZ2jERBFr9KkRI4oA,Sunshine plaza,OPERATIONAL,"{'location': {'lat': 1.3004038, 'lng': 103.8511253}, 'viewport': {'northeast': {'lat': 1.301760280291502, 'lng': 103.8522717802915}, 'southwest': {'lat': 1.299062319708498, 'lng': 103.8495738197085}}}",2.0,1204.0,3.9,"['shopping_mall', 'point_of_interest', 'establishment']","91 Bencoolen Street, Singapore",,1.3004038,103.8511253
ChIJ1ZAIkrwZ2jERxtZGC1JnrHM,GR.iD (GR.iD Singapore),OPERATIONAL,"{'location': {'lat': 1.3001949, 'lng': 103.8492265}, 'viewport': {'northeast': {'lat': 1.301620180291502, 'lng': 103.8507369302915}, 'southwest': {'lat': 1.298922219708498, 'lng': 103.8480389697085}}}",,1697.0,3.8,"['shopping_mall', 'point_of_interest', 'establishment']",1 Selegie Road,,1.3001949,103.8492265
ChIJyZ4g7KUZ2jERap2fFAXE3a8,South Beach Avenue,OPERATIONAL,"{'location': {'lat': 1.2942384, 'lng': 103.8557517}, 'viewport': {'northeast': {'lat': 1.295451930291502, 'lng': 103.8573797302915}, 'southwest': {'lat': 1.292753969708498, 'lng': 103.8546817697085}}}",,1469.0,4.4,"['shopping_mall', 'point_of_interest', 'establishment']",26 Beach Road,,1.2942384,103.8557517
ChIJRXd7yaYZ2jERQH3RSOQbtPI,Inkprompt Pte Ltd,OPERATIONAL,"{'location': {'lat': 1.2923526, 'lng': 103.8509667}, 'viewport': {'northeast': {'lat': 1.293735780291502, 'lng': 103.8524121302915}, 'southwest': {'lat': 1.291037819708498, 'lng': 103.8497141697085}}}",,1.0,5.0,"['shopping_mall', 'point_of_interest', 'establishment']","111 North Bridge Road, Singapore",,1.2923526,103.8509667
ChIJW1X7tLsZ2jERiz3F9Zm9y4s,The Bencoolen,OPERATIONAL,"{'location': {'lat': 1.3016941, 'lng': 103.8532843}, 'viewport': {'northeast': {'lat': 1.303079980291502, 'lng': 103.8547186802915}, 'southwest': {'lat': 1.300382019708498, 'lng': 103.8520207197085}}}",,478.0,3.7,"['shopping_mall', 'point_of_interest', 'establishment']",180 Bencoolen Street,,1.3016941,103.8532843
ChIJ6wAdS7sZ2jEREwTs20WMJas,BBRW Pte Ltd,OPERATIONAL,"{'location': {'lat': 1.2984365, 'lng': 103.8522368}, 'viewport': {'northeast': {'lat': 1.299692980291502, 'lng': 103.8536278302915}, 'southwest': {'lat': 1.296995019708498, 'lng': 103.8509298697085}}}",,94.0,3.6,"['shopping_mall', 'point_of_interest', 'establishment']","261 Waterloo Street, #02-24 Waterloo Centre",,1.2984365,103.8522368
ChIJ5b9USLsZ2jERLHiICrHNYfY,Waterloo Centre,OPERATIONAL,"{'location': {'lat': 1.2988808, 'lng': 103.8520151}, 'viewport': {'northeast': {'lat': 1.299991980291502, 'lng': 103.8535764302915}, 'southwest': {'lat': 1.297294019708498, 'lng': 103.8508784697085}}}",,669.0,3.9,"['shopping_mall', 'point_of_interest', 'establishment']","261 Waterloo Street, #01-03 Waterloo Center",,1.2988808,103.8520151
ChIJvcww8aMZ2jERk26KU8oktC0,Stamford Court,OPERATIONAL,"{'location': {'lat': 1.2944822, 'lng': 103.850122}, 'viewport': {'northeast': {'lat': 1.295451280291502, 'lng': 103.8515446302915}, 'southwest': {'lat': 1.292753319708498, 'lng': 103.8488466697085}}}",,166.0,4.1,"['shopping_mall', 'point_of_interest', 'establishment']","61 Stamford Road, Singapore",,1.2944822,103.850122
