place_id,name,business_status,geometry,price_level,user_ratings_total,rating,types,vicinity,permanently_closed,lat,lng
ChIJKU4wlVcf2jERsRIYr8P-i3Y,KidsCamp Singapore,OPERATIONAL,"{'location': {'lat': 1.2432981, 'lng': 103.8280264}, 'viewport': {'northeast': {'lat': 1.244746880291502, 'lng': 103.8294741302915}, 'southwest': {'lat': 1.242048919708498, 'lng': 103.8267761697085}}}",,2.0,3.0,"['school', 'point_of_interest', 'establishment']",120 Tanjong Beach Walk,,1.2432981,103.8280264
ChIJda22jCcf2jERPcM5bpyGIf8,"deimogofokd@,goil.com",OPERATIONAL,"{'location': {'lat': 1.2431113, 'lng': 103.8363529}, 'viewport': {'northeast': {'lat': 1.244574180291502, 'lng': 103.8381366302915}, 'southwest': {'lat': 1.241876219708498, 'lng': 103.8354386697085}}}",,,,"['school', 'point_of_interest', 'establishment']",Singapur,,1.2431113,103.8363529
ChIJ8bEJcKwe2jERVKAIUno3QhA,EtonHouse International School Sentosa,OPERATIONAL,"{'location': {'lat': 1.248497, 'lng': 103.8280487}, 'viewport': {'northeast': {'lat': 1.249857280291502, 'lng': 103.8292328802915}, 'southwest': {'lat': 1.247159319708498, 'lng': 103.8265349197085}}}",,,,"['primary_school', 'school', 'point_of_interest', 'establishment']",33 Allanbrooke Road,,1.248497,103.8280487
ChIJ8bEJcKwe2jERVKAIUno3QhA,EtonHouse International School Sentosa,OPERATIONAL,"{'location': {'lat': 1.248497, 'lng': 103.8280487}, 'viewport': {'northeast': {'lat': 1.249857280291502, 'lng': 103.8292328802915}, 'southwest': {'lat': 1.247159319708498, 'lng': 103.8265349197085}}}",,,,"['primary_school', 'school', 'point_of_interest', 'establishment']",33 Allanbrooke Road,,1.248497,103.8280487
ChIJyZWB1rUe2jERq57akSOwjoI,Quayside Isle Preparatory School,OPERATIONAL,"{'location': {'lat': 1.2471352, 'lng': 103.8423525}, 'viewport': {'northeast': {'lat': 1.248805780291502, 'lng': 103.8436369802915}, 'southwest': {'lat': 1.246107819708498, 'lng': 103.8409390197085}}}",,,,"['school', 'point_of_interest', 'establishment']","31 Ocean Way, #01-17",,1.2471352,103.8423525
ChIJD2-ytbYe2jER_CQTYYnHI9w,BASCO Boating,OPERATIONAL,"{'location': {'lat': 1.2469693, 'lng': 103.8398874}, 'viewport': {'northeast': {'lat': 1.248489580291502, 'lng': 103.8408910302915}, 'southwest': {'lat': 1.245791619708498, 'lng': 103.8381930697085}}}",,13.0,4.4,"['school', 'store', 'point_of_interest', 'establishment']","1 Cove Drive, Singapore",,1.2469693,103.8398874
ChIJB8WeMOAf2jER9Z1JnOQJdtk,Mamamonte Montessori,OPERATIONAL,"{'location': {'lat': 1.248937, 'lng': 103.8423759}, 'viewport': {'northeast': {'lat': 1.250364480291502, 'lng': 103.8437210802915}, 'southwest': {'lat': 1.247666519708498, 'lng': 103.8410231197085}}}",,,,"['school', 'point_of_interest', 'establishment']",,,1.248937,103.8423759
ChIJyZWB1rUe2jERq57akSOwjoI,Quayside Isle Preparatory School,OPERATIONAL,"{'location': {'lat': 1.2471352, 'lng': 103.8423525}, 'viewport': {'northeast': {'lat': 1.248805780291502, 'lng': 103.8436369802915}, 'southwest': {'lat': 1.246107819708498, 'lng': 103.8409390197085}}}",,,,"['school', 'point_of_interest', 'establishment']","31 Ocean Way, #01-17",,1.2471352,103.8423525
ChIJB8WeMOAf2jER9Z1JnOQJdtk,Mamamonte Montessori,OPERATIONAL,"{'location': {'lat': 1.248937, 'lng': 103.8423759}, 'viewport': {'northeast': {'lat': 1.250364480291502, 'lng': 103.8437210802915}, 'southwest': {'lat': 1.247666519708498, 'lng': 103.8410231197085}}}",,,,"['school', 'point_of_interest', 'establishment']",,,1.248937,103.8423759
ChIJ0ZQXRQ4d2jERUjXgjf97pjE,EtonHouse Pre-School by the Beach,OPERATIONAL,"{'location': {'lat': 1.2517513, 'lng': 103.8202065}, 'viewport': {'northeast': {'lat': 1.253126530291502, 'lng': 103.8212479802915}, 'southwest': {'lat': 1.250428569708498, 'lng': 103.8185500197085}}}",,,,"['school', 'point_of_interest', 'establishment']","31 Beach View Road, #02-01 & #03-01 Palawan Kidz City, Sentosa",,1.2517513,103.8202065
ChIJ-STZrqIZ2jER_kEAi4HkVs0,SSTC Institute,OPERATIONAL,"{'location': {'lat': 1.2644615, 'lng': 103.8201179}, 'viewport': {'northeast': {'lat': 1.265827380291502, 'lng': 103.8213710802915}, 'southwest': {'lat': 1.263129419708498, 'lng': 103.8186731197085}}}",,61.0,4.4,"['school', 'point_of_interest', 'establishment']","1 Maritime Square 13-01 HarbourFront Centre access from Lift, Lobby B to Level 12 Level 13 via escalator",,1.2644615,103.8201179
ChIJI8r3ofMb2jERIjPaEQhAVuA,Agora Colearning,OPERATIONAL,"{'location': {'lat': 1.2632359, 'lng': 103.8201359}, 'viewport': {'northeast': {'lat': 1.265139780291502, 'lng': 103.8213031302915}, 'southwest': {'lat': 1.262441819708498, 'lng': 103.8186051697085}}}",,108.0,4.9,"['school', 'point_of_interest', 'establishment']","HarbourFront Centre, 1 Maritime Square, #04-01 Lobby C",,1.2632359,103.8201359
ChIJ281sc5DTuUERHiUpiaqKGKU,Heph Academy,OPERATIONAL,"{'location': {'lat': 1.2661746, 'lng': 103.8233469}, 'viewport': {'northeast': {'lat': 1.267395630291502, 'lng': 103.8247457802915}, 'southwest': {'lat': 1.264697669708498, 'lng': 103.8220478197085}}}",,,,"['school', 'point_of_interest', 'establishment']","52 Telok Blangah Road, #04-03 Telok Blangah House",,1.2661746,103.8233469
ChIJh5U-f7sb2jERe2rt-P2CzYQ,BMC@HarbourFront,OPERATIONAL,"{'location': {'lat': 1.2642175, 'lng': 103.8203582}, 'viewport': {'northeast': {'lat': 1.265422530291502, 'lng': 103.8218051302915}, 'southwest': {'lat': 1.262724569708498, 'lng': 103.8191071697085}}}",,,,"['school', 'point_of_interest', 'establishment']",Brighton Montessori centre’s,,1.2642175,103.8203582
ChIJYyXQ9Dcb2jERRCg_lzSRgNo,Brighton Montessori Harbourfront,OPERATIONAL,"{'location': {'lat': 1.2642175, 'lng': 103.8203582}, 'viewport': {'northeast': {'lat': 1.265500730291502, 'lng': 103.8217857802915}, 'southwest': {'lat': 1.262802769708498, 'lng': 103.8190878197085}}}",,18.0,4.9,"['school', 'point_of_interest', 'establishment']","1 Maritime Square, #03-03 HarbourFront Centre",,1.2642175,103.8203582
ChIJA4hEaOIb2jERDhOXC3wpIg4,Readers Harvest,OPERATIONAL,"{'location': {'lat': 1.2641654, 'lng': 103.8203016}, 'viewport': {'northeast': {'lat': 1.265383630291502, 'lng': 103.8216188802915}, 'southwest': {'lat': 1.262685669708498, 'lng': 103.8189209197085}}}",,,,"['school', 'point_of_interest', 'establishment']",1 Maritime Square,,1.2641654,103.8203016
ChIJ9TyQaeIb2jERaBSLHLfaVCA,Heguru Method @ HarbourFront,OPERATIONAL,"{'location': {'lat': 1.2643246, 'lng': 103.8203062}, 'viewport': {'northeast': {'lat': 1.265504880291502, 'lng': 103.8217862802915}, 'southwest': {'lat': 1.262806919708498, 'lng': 103.8190883197085}}}",,95.0,4.8,"['school', 'point_of_interest', 'establishment']","1 Maritime Square, #03 - 09",,1.2643246,103.8203062
ChIJDc2Rtnsb2jERxP4KJUK9Smo,inStic Academy,OPERATIONAL,"{'location': {'lat': 1.264197, 'lng': 103.820116}, 'viewport': {'northeast': {'lat': 1.265549030291502, 'lng': 103.8212700302915}, 'southwest': {'lat': 1.262851069708498, 'lng': 103.8185720697085}}}",,,,"['school', 'point_of_interest', 'establishment']","1 Maritime Square, #04-01",,1.264197,103.820116
ChIJzSXR_DIa2jERsiV0hN1JleE,Rainbow Cove @ Alexandra,OPERATIONAL,"{'location': {'lat': 1.2736219, 'lng': 103.8017499}, 'viewport': {'northeast': {'lat': 1.274954180291502, 'lng': 103.8031364802915}, 'southwest': {'lat': 1.272256219708498, 'lng': 103.8004385197085}}}",,28.0,4.7,"['school', 'point_of_interest', 'establishment']","460 Alexandra Road, #03-04",,1.2736219,103.8017499
ChIJXXNIRt0b2jERsWdaCRsP2tg,PCF Sparkletots @ Telok Blangah Blk 44,OPERATIONAL,"{'location': {'lat': 1.2714028, 'lng': 103.8106225}, 'viewport': {'northeast': {'lat': 1.272583030291502, 'lng': 103.8116148302915}, 'southwest': {'lat': 1.269885069708498, 'lng': 103.8089168697085}}}",,8.0,3.6,"['school', 'point_of_interest', 'establishment']","Blk 44 Telok Blangah Drive, #01-19 / 51",,1.2714028,103.8106225
ChIJqxIipMsb2jERb8aiXWRAfcw,Little Seeds Preschool (Capstone),OPERATIONAL,"{'location': {'lat': 1.2697035, 'lng': 103.8145724}, 'viewport': {'northeast': {'lat': 1.271088080291502, 'lng': 103.8159421802915}, 'southwest': {'lat': 1.268390119708498, 'lng': 103.8132442197085}}}",,19.0,5.0,"['school', 'point_of_interest', 'establishment']","63 Wishart Road, Singapore",,1.2697035,103.8145724
ChIJsxXaRucb2jERrrxN1NLwcLc,Telok Blangah Methodist Children Centre,OPERATIONAL,"{'location': {'lat': 1.2693815, 'lng': 103.8146362}, 'viewport': {'northeast': {'lat': 1.270872080291502, 'lng': 103.8160680802915}, 'southwest': {'lat': 1.268174119708498, 'lng': 103.8133701197085}}}",,,,"['school', 'point_of_interest', 'establishment']",61 Wishart Road,,1.2693815,103.8146362
ChIJ81N7L8Mb2jERaG6sb_DGreY,Nanyang Children School,OPERATIONAL,"{'location': {'lat': 1.2736245, 'lng': 103.8082585}, 'viewport': {'northeast': {'lat': 1.275118280291502, 'lng': 103.8098095802915}, 'southwest': {'lat': 1.272420319708498, 'lng': 103.8071116197085}}}",,1.0,1.0,"['school', 'point_of_interest', 'establishment']","78B Telok Blangah Street 32, #02-17",,1.2736245,103.8082585
ChIJsxXaRucb2jERrrxN1NLwcLc,Telok Blangah Methodist Children Centre,OPERATIONAL,"{'location': {'lat': 1.2693815, 'lng': 103.8146362}, 'viewport': {'northeast': {'lat': 1.270872080291502, 'lng': 103.8160680802915}, 'southwest': {'lat': 1.268174119708498, 'lng': 103.8133701197085}}}",,,,"['school', 'point_of_interest', 'establishment']",61 Wishart Road,,1.2693815,103.8146362
ChIJqxIipMsb2jERb8aiXWRAfcw,Little Seeds Preschool (Capstone),OPERATIONAL,"{'location': {'lat': 1.2697035, 'lng': 103.8145724}, 'viewport': {'northeast': {'lat': 1.271088080291502, 'lng': 103.8159421802915}, 'southwest': {'lat': 1.268390119708498, 'lng': 103.8132442197085}}}",,19.0,5.0,"['school', 'point_of_interest', 'establishment']","63 Wishart Road, Singapore",,1.2697035,103.8145724
ChIJHwP6g7gX2jERWTtsU8YQSP8,SwingXV Tennis,OPERATIONAL,"{'location': {'lat': 1.2664005, 'lng': 103.8171202}, 'viewport': {'northeast': {'lat': 1.267812180291502, 'lng': 103.8183576302915}, 'southwest': {'lat': 1.265114219708498, 'lng': 103.8156596697085}}}",,16.0,5.0,"['health', 'school', 'point_of_interest', 'establishment']",21 Keppel Bay Drive,,1.2664005,103.8171202
ChIJ5-kytOMb2jERzCrfLvvy614,Kiddiwinkie Schoolhouse @ Harbourfront,OPERATIONAL,"{'location': {'lat': 1.2649375, 'lng': 103.818727}, 'viewport': {'northeast': {'lat': 1.266287480291502, 'lng': 103.8200666802915}, 'southwest': {'lat': 1.263589519708498, 'lng': 103.8173687197085}}}",,13.0,4.8,"['school', 'point_of_interest', 'establishment']","3 Harbourfront Place, #02-01 HarbourFront Tower Two",,1.2649375,103.818727
ChIJN_xk_2sb2jEREJ89zpRAwRg,ORION Wealth Academy,OPERATIONAL,"{'location': {'lat': 1.2649132, 'lng': 103.8187874}, 'viewport': {'northeast': {'lat': 1.266252680291502, 'lng': 103.8201602302915}, 'southwest': {'lat': 1.263554719708498, 'lng': 103.8174622697085}}}",,,,"['school', 'point_of_interest', 'establishment']","3 Harbourfront Place, Level 6 HarbourFront Tower Two",,1.2649132,103.8187874
ChIJqQjOtOMb2jERPzccfFaqPgw,Parent-Teacher-Child Learning School International,OPERATIONAL,"{'location': {'lat': 1.2648081, 'lng': 103.8192714}, 'viewport': {'northeast': {'lat': 1.266374430291502, 'lng': 103.8206410802915}, 'southwest': {'lat': 1.263676469708498, 'lng': 103.8179431197085}}}",,1.0,5.0,"['university', 'secondary_school', 'school', 'point_of_interest', 'establishment']","3 Harbourfront Place, HarbourFront Tower Two, Singapore",,1.2648081,103.8192714
ChIJ_7O4Q2EZ2jERXzrdmplnkPY,Haven Schoolhouse (Bukit Purmei Preschool),OPERATIONAL,"{'location': {'lat': 1.2722534, 'lng': 103.8264681}, 'viewport': {'northeast': {'lat': 1.273477830291502, 'lng': 103.8278210802915}, 'southwest': {'lat': 1.270779869708498, 'lng': 103.8251231197085}}}",,13.0,4.5,"['school', 'point_of_interest', 'establishment']","102 Bukit Purmei Road, Block 102",,1.2722534,103.8264681
ChIJTandfd8b2jERvH-IB8AR7Bk,Life Community Services Society - Telok Blangah,OPERATIONAL,"{'location': {'lat': 1.2731545, 'lng': 103.8215258}, 'viewport': {'northeast': {'lat': 1.274508130291502, 'lng': 103.8228138802915}, 'southwest': {'lat': 1.271810169708498, 'lng': 103.8201159197085}}}",,,,"['school', 'point_of_interest', 'establishment']",32 Telok Blangah Rise,,1.2731545,103.8215258
ChIJ6bI-5dUZ2jERtnTlKNP-ggw,Nomad Voice Coach,OPERATIONAL,"{'location': {'lat': 1.2678622, 'lng': 103.8228401}, 'viewport': {'northeast': {'lat': 1.269244480291502, 'lng': 103.8242519302915}, 'southwest': {'lat': 1.266546519708498, 'lng': 103.8215539697085}}}",,,,"['school', 'point_of_interest', 'establishment']",Singapore,,1.2678622,103.8228401
ChIJ281sc5DTuUERHiUpiaqKGKU,Heph Academy,OPERATIONAL,"{'location': {'lat': 1.2661746, 'lng': 103.8233469}, 'viewport': {'northeast': {'lat': 1.267395630291502, 'lng': 103.8247457802915}, 'southwest': {'lat': 1.264697669708498, 'lng': 103.8220478197085}}}",,,,"['school', 'point_of_interest', 'establishment']","52 Telok Blangah Road, #04-03 Telok Blangah House",,1.2661746,103.8233469
ChIJkUoLuYwZ2jERT3jKoFTnSaw,The School of Make Up,OPERATIONAL,"{'location': {'lat': 1.2730079, 'lng': 103.8423365}, 'viewport': {'northeast': {'lat': 1.274284180291502, 'lng': 103.8435811302915}, 'southwest': {'lat': 1.271586219708498, 'lng': 103.8408831697085}}}",,1540.0,5.0,"['school', 'point_of_interest', 'establishment']","19 Keppel Road, #01-02 Jit Poh Building",,1.2730079,103.8423365
ChIJy97ukfUZ2jERKJUl3xpwHgQ,启迪教育Enlighten Education Group,OPERATIONAL,"{'location': {'lat': 1.2729624, 'lng': 103.8423879}, 'viewport': {'northeast': {'lat': 1.274245130291502, 'lng': 103.8436204802915}, 'southwest': {'lat': 1.271547169708498, 'lng': 103.8409225197085}}}",,,,"['school', 'point_of_interest', 'establishment']","SG, Keppel Road, #02-01/02 19",,1.2729624,103.8423879
ChIJ9fgWjKUb2jER74O7tDEYeqQ,FOS - Fusion of Sounds,OPERATIONAL,"{'location': {'lat': 1.279854, 'lng': 103.782676}, 'viewport': {'northeast': {'lat': 1.281162330291502, 'lng': 103.7839773802915}, 'southwest': {'lat': 1.278464369708498, 'lng': 103.7812794197085}}}",,,,"['school', 'store', 'point_of_interest', 'establishment']",,,1.279854,103.782676
ChIJr4liWYEZ2jER176soauNSbw,JHS Montessori,OPERATIONAL,"{'location': {'lat': 1.2792979, 'lng': 103.7886034}, 'viewport': {'northeast': {'lat': 1.280644880291502, 'lng': 103.7900179802915}, 'southwest': {'lat': 1.277946919708498, 'lng': 103.7873200197085}}}",,7.0,5.0,"['school', 'point_of_interest', 'establishment']","9 Chwee Chian Road, Singapore",,1.2792979,103.7886034
ChIJr1piWqUb2jER1ZbSkI28Tj0,Evergreen Montessori,OPERATIONAL,"{'location': {'lat': 1.2796163, 'lng': 103.7860689}, 'viewport': {'northeast': {'lat': 1.280950830291502, 'lng': 103.7875504302915}, 'southwest': {'lat': 1.278252869708498, 'lng': 103.7848524697085}}}",,,,"['school', 'point_of_interest', 'establishment']",3 South Buona Vista Road,,1.2796163,103.7860689
ChIJaQ9AVqUb2jERzlhJW9g32rQ,Kumon Asia and Oceania Pte Ltd - Holland Drive,OPERATIONAL,"{'location': {'lat': 1.2799682, 'lng': 103.7864044}, 'viewport': {'northeast': {'lat': 1.281311980291502, 'lng': 103.7877698302915}, 'southwest': {'lat': 1.278614019708498, 'lng': 103.7850718697085}}}",,,,"['school', 'point_of_interest', 'establishment']",8 South Buona Vista Road,,1.2799682,103.7864044
ChIJLSLf3XQb2jERVT4Z3NPWfEQ,The Sherman Preschool,OPERATIONAL,"{'location': {'lat': 1.279911, 'lng': 103.7861912}, 'viewport': {'northeast': {'lat': 1.281193080291502, 'lng': 103.7875599802915}, 'southwest': {'lat': 1.278495119708498, 'lng': 103.7848620197085}}}",,,,"['school', 'point_of_interest', 'establishment']",9 South Buona Vista Road,,1.279911,103.7861912
ChIJVTR4RrQb2jERm6jhux-4M6s,Lorna Whiston Preschool (Hort Park),OPERATIONAL,"{'location': {'lat': 1.2768843, 'lng': 103.7964053}, 'viewport': {'northeast': {'lat': 1.278704280291502, 'lng': 103.7976583302915}, 'southwest': {'lat': 1.276006319708498, 'lng': 103.7949603697085}}}",,26.0,4.9,"['school', 'point_of_interest', 'establishment']","100G Pasir Panjang Road, #01-07/08/19/20",,1.2768843,103.7964053
ChIJx7bZHBoX2jERJFxhP11vwVc,Fly Once Gymnastics School,OPERATIONAL,"{'location': {'lat': 1.2750721, 'lng': 103.7939776}, 'viewport': {'northeast': {'lat': 1.276430630291502, 'lng': 103.7953075802915}, 'southwest': {'lat': 1.273732669708498, 'lng': 103.7926096197085}}}",,10.0,4.3,"['gym', 'school', 'health', 'point_of_interest', 'establishment']","44 Pasir Panjang Road, C-01",,1.2750721,103.7939776
ChIJq6qqusAb2jERBKyDYS4wSPQ,MindChamps PreSchool @ Mapletree Business City,OPERATIONAL,"{'location': {'lat': 1.2754092, 'lng': 103.7985447}, 'viewport': {'northeast': {'lat': 1.276800780291502, 'lng': 103.7998265802915}, 'southwest': {'lat': 1.274102819708498, 'lng': 103.7971286197085}}}",,21.0,5.0,"['school', 'point_of_interest', 'establishment']","20 Pasir Panjang Road, Singapore",,1.2754092,103.7985447
ChIJXziIcowb2jERy1DvcbBWluY,Nutripet World Pte. Ltd.,OPERATIONAL,"{'location': {'lat': 1.2760918, 'lng': 103.7954127}, 'viewport': {'northeast': {'lat': 1.277399580291502, 'lng': 103.7968631302915}, 'southwest': {'lat': 1.274701619708498, 'lng': 103.7941651697085}}}",,4.0,5.0,"['pet_store', 'school', 'store', 'point_of_interest', 'establishment']","102E Pasir Panjang Road, #04-03 CITILINK WAREHOUSE COMPLEX",,1.2760918,103.7954127
ChIJ9foTbG8b2jERdCzwIJZXT38,Littlefoot Academy by Littlefoot Developmental Services,OPERATIONAL,"{'location': {'lat': 1.2768843, 'lng': 103.7964053}, 'viewport': {'northeast': {'lat': 1.278135630291502, 'lng': 103.7977235802915}, 'southwest': {'lat': 1.275437669708498, 'lng': 103.7950256197085}}}",,,,"['school', 'point_of_interest', 'establishment']","100G Pasir Panjang Road, #01-16 Interlocal Centre",,1.2768843,103.7964053
ChIJGZPzO_kb2jERhbtfRASj_fM,Dinosaur Speech Therapy - Early Intervention Programme in Singapore,OPERATIONAL,"{'location': {'lat': 1.2779525, 'lng': 103.7964482}, 'viewport': {'northeast': {'lat': 1.279332230291502, 'lng': 103.7976788302915}, 'southwest': {'lat': 1.276634269708498, 'lng': 103.7949808697085}}}",,27.0,5.0,"['school', 'health', 'point_of_interest', 'establishment']","100G Pasir Panjang Road, #01-02, #07-18",,1.2779525,103.7964482
ChIJyUrpXLgb2jERXuA6RQN6B04,MapleBear Labrador,OPERATIONAL,"{'location': {'lat': 1.2781867, 'lng': 103.7964805}, 'viewport': {'northeast': {'lat': 1.279562930291502, 'lng': 103.7977244802915}, 'southwest': {'lat': 1.276864969708498, 'lng': 103.7950265197085}}}",,7.0,4.3,"['school', 'point_of_interest', 'establishment']","100H Pasir Panjang Road, #02-01",,1.2781867,103.7964805
ChIJJUKV97gb2jER2uF831V-ALs,Learning Vision Harbourlink Innohub (Pasir Panjang),OPERATIONAL,"{'location': {'lat': 1.2779794, 'lng': 103.7983447}, 'viewport': {'northeast': {'lat': 1.278818080291502, 'lng': 103.7996180302915}, 'southwest': {'lat': 1.276120119708498, 'lng': 103.7969200697085}}}",,12.0,4.7,"['school', 'point_of_interest', 'establishment']","Pasir Panjang, 61, Alexandra Terrace, #02-11, Harbourlink Innohub",,1.2779794,103.7983447
ChIJQXQAdRMZ2jER4HSSjvJSZms,Hanbridge Institute | Private School Singapore,OPERATIONAL,"{'location': {'lat': 1.2753116, 'lng': 103.8013192}, 'viewport': {'northeast': {'lat': 1.276564180291502, 'lng': 103.8027945802915}, 'southwest': {'lat': 1.273866219708498, 'lng': 103.8000966197085}}}",,9.0,4.4,"['school', 'point_of_interest', 'establishment']","456 Alexandra Road, #13-01/02 Fragrance Empire Building",,1.2753116,103.8013192
ChIJPYK8kXcZ2jER15u_VD1WaSw,aikiForest Aikido @ Alexandra Retail Centre,OPERATIONAL,"{'location': {'lat': 1.2740107, 'lng': 103.8013078}, 'viewport': {'northeast': {'lat': 1.275167680291502, 'lng': 103.8029005302915}, 'southwest': {'lat': 1.272469719708498, 'lng': 103.8002025697085}}}",,12.0,4.8,"['gym', 'school', 'health', 'point_of_interest', 'establishment']","460 Alexandra Road #03-02, PSA Building",,1.2740107,103.8013078
ChIJFdqh35ob2jERIUAybGol46k,PlayFACTO School @ Alexandra (Labrador) | Student Care Alexandra,OPERATIONAL,"{'location': {'lat': 1.2752179, 'lng': 103.8014338}, 'viewport': {'northeast': {'lat': 1.276515330291502, 'lng': 103.8028503802915}, 'southwest': {'lat': 1.273817369708498, 'lng': 103.8001524197085}}}",,13.0,5.0,"['school', 'point_of_interest', 'establishment']","456 Alexandra Road, #02-09/10 Fragrance Empire Building",,1.2752179,103.8014338
ChIJj-WsO4Yb2jER4OLm_wJSFpk,DPS International School - Alexandra Campus,OPERATIONAL,"{'location': {'lat': 1.2752881, 'lng': 103.8013377}, 'viewport': {'northeast': {'lat': 1.276549480291502, 'lng': 103.8028015802915}, 'southwest': {'lat': 1.273851519708498, 'lng': 103.8001036197085}}}",,,,"['school', 'point_of_interest', 'establishment']","456 Alexandra Road, #11, Singapore",,1.2752881,103.8013377
ChIJq6qqusAb2jERBKyDYS4wSPQ,MindChamps PreSchool @ Mapletree Business City,OPERATIONAL,"{'location': {'lat': 1.2754092, 'lng': 103.7985447}, 'viewport': {'northeast': {'lat': 1.276800780291502, 'lng': 103.7998265802915}, 'southwest': {'lat': 1.274102819708498, 'lng': 103.7971286197085}}}",,21.0,5.0,"['school', 'point_of_interest', 'establishment']","20 Pasir Panjang Road, Singapore",,1.2754092,103.7985447
ChIJzSXR_DIa2jERsiV0hN1JleE,Rainbow Cove @ Alexandra,OPERATIONAL,"{'location': {'lat': 1.2736219, 'lng': 103.8017499}, 'viewport': {'northeast': {'lat': 1.274954180291502, 'lng': 103.8031364802915}, 'southwest': {'lat': 1.272256219708498, 'lng': 103.8004385197085}}}",,28.0,4.7,"['school', 'point_of_interest', 'establishment']","460 Alexandra Road, #03-04",,1.2736219,103.8017499
ChIJoyMhBKAb2jERZ53gqG04I1A,Mulberry Learning @ Alexandra Technopark,OPERATIONAL,"{'location': {'lat': 1.2777047, 'lng': 103.8008548}, 'viewport': {'northeast': {'lat': 1.278925480291502, 'lng': 103.8021414302915}, 'southwest': {'lat': 1.276227519708498, 'lng': 103.7994434697085}}}",,7.0,5.0,"['school', 'point_of_interest', 'establishment']","Alexandra Road, Block B, Alexandra Technopark",,1.2777047,103.8008548
ChIJiTipWdwb2jER4xIZb2KxO0g,The Pod,CLOSED_TEMPORARILY,"{'location': {'lat': 1.2790406, 'lng': 103.8025301}, 'viewport': {'northeast': {'lat': 1.280332080291502, 'lng': 103.8037178802915}, 'southwest': {'lat': 1.277634119708498, 'lng': 103.8010199197085}}}",,,,"['school', 'point_of_interest', 'establishment']","394 Alexandra Road, Singapore",True,1.2790406,103.8025301
ChIJIbmBInAb2jER9bXyCvLsEzE,Gary Goh Music (Vocal Coach / Guitar & Singing Lessons),OPERATIONAL,"{'location': {'lat': 1.2767542, 'lng': 103.8068191}, 'viewport': {'northeast': {'lat': 1.278098580291502, 'lng': 103.8081166302915}, 'southwest': {'lat': 1.275400619708498, 'lng': 103.8054186697085}}}",,11.0,5.0,"['school', 'point_of_interest', 'establishment']",91A Telok Blangah Street 31,,1.2767542,103.8068191
ChIJifLnaQMb2jERpJoryC3ogdk,All A's Tuition,OPERATIONAL,"{'location': {'lat': 1.275279, 'lng': 103.8071173}, 'viewport': {'northeast': {'lat': 1.276544780291502, 'lng': 103.8084637802915}, 'southwest': {'lat': 1.273846819708498, 'lng': 103.8057658197085}}}",,,,"['school', 'point_of_interest', 'establishment']","93A Telok Blangah Street 31, #27-155, Parcview",,1.275279,103.8071173
ChIJCbsbV0Mb2jERdXl94JBAJvs,E-Bridge Pre-School Telok Blangah,OPERATIONAL,"{'location': {'lat': 1.2762126, 'lng': 103.8077762}, 'viewport': {'northeast': {'lat': 1.277681030291502, 'lng': 103.8091899302915}, 'southwest': {'lat': 1.274983069708498, 'lng': 103.8064919697085}}}",,3.0,4.3,"['school', 'point_of_interest', 'establishment']","Blk 92 Telok Blangah Street 31, #02-257",,1.2762126,103.8077762
ChIJAcudlcQb2jER79qDI92YQoo,MOE Kindergarten @ Blangah Rise,OPERATIONAL,"{'location': {'lat': 1.2761891, 'lng': 103.8087082}, 'viewport': {'northeast': {'lat': 1.277718130291502, 'lng': 103.8100665302915}, 'southwest': {'lat': 1.275020169708498, 'lng': 103.8073685697085}}}",,2.0,1.5,"['school', 'point_of_interest', 'establishment']","91 Telok Blangah Heights, Blangah Rise Primary School",,1.2761891,103.8087082
ChIJ0UOPpdwb2jERY0Q-BuvJ9Ys,My First Skool at 63 Telok Blangah Heights,OPERATIONAL,"{'location': {'lat': 1.2748311, 'lng': 103.8108943}, 'viewport': {'northeast': {'lat': 1.276284480291502, 'lng': 103.8126661302915}, 'southwest': {'lat': 1.273586519708498, 'lng': 103.8099681697085}}}",,17.0,5.0,"['school', 'point_of_interest', 'establishment']","Blk 63 Telok Blangah Heights, #01-219",,1.2748311,103.8108943
ChIJWXDXEMMb2jERAV8ABoqvrOk,Star Learners @ Telok Blangah | Preschool & Childcare,OPERATIONAL,"{'location': {'lat': 1.2736207, 'lng': 103.8081962}, 'viewport': {'northeast': {'lat': 1.275052530291502, 'lng': 103.8096763802915}, 'southwest': {'lat': 1.272354569708498, 'lng': 103.8069784197085}}}",,14.0,5.0,"['school', 'point_of_interest', 'establishment']","Blk 78B Telok Blangah Street 32, #02-16",,1.2736207,103.8081962
ChIJhwcFbdAb2jERuMUG1I2EL-4,Appleland Playhouse,OPERATIONAL,"{'location': {'lat': 1.280543, 'lng': 103.811563}, 'viewport': {'northeast': {'lat': 1.281950630291502, 'lng': 103.8127902802915}, 'southwest': {'lat': 1.279252669708498, 'lng': 103.8100923197085}}}",,53.0,5.0,"['school', 'point_of_interest', 'establishment']","Blk 104C Depot Road, #01-03",,1.280543,103.811563
ChIJk8FxxMQb2jERhDs9mlzgCeU,Blangah Rise Primary School,OPERATIONAL,"{'location': {'lat': 1.2761562, 'lng': 103.8086762}, 'viewport': {'northeast': {'lat': 1.277701730291502, 'lng': 103.8100483802915}, 'southwest': {'lat': 1.275003769708498, 'lng': 103.8073504197085}}}",,,,"['primary_school', 'school', 'point_of_interest', 'establishment']","91 Telok Blangah Heights, Singapore",,1.2761562,103.8086762
ChIJCbsbV0Mb2jERdXl94JBAJvs,E-Bridge Pre-School Telok Blangah,OPERATIONAL,"{'location': {'lat': 1.2762126, 'lng': 103.8077762}, 'viewport': {'northeast': {'lat': 1.277681030291502, 'lng': 103.8091899302915}, 'southwest': {'lat': 1.274983069708498, 'lng': 103.8064919697085}}}",,3.0,4.3,"['school', 'point_of_interest', 'establishment']","Blk 92 Telok Blangah Street 31, #02-257",,1.2762126,103.8077762
ChIJ81N7L8Mb2jERaG6sb_DGreY,Nanyang Children School,OPERATIONAL,"{'location': {'lat': 1.2736245, 'lng': 103.8082585}, 'viewport': {'northeast': {'lat': 1.275118280291502, 'lng': 103.8098095802915}, 'southwest': {'lat': 1.272420319708498, 'lng': 103.8071116197085}}}",,1.0,1.0,"['school', 'point_of_interest', 'establishment']","78B Telok Blangah Street 32, #02-17",,1.2736245,103.8082585
ChIJifLnaQMb2jERpJoryC3ogdk,All A's Tuition,OPERATIONAL,"{'location': {'lat': 1.275279, 'lng': 103.8071173}, 'viewport': {'northeast': {'lat': 1.276544780291502, 'lng': 103.8084637802915}, 'southwest': {'lat': 1.273846819708498, 'lng': 103.8057658197085}}}",,,,"['school', 'point_of_interest', 'establishment']","93A Telok Blangah Street 31, #27-155, Parcview",,1.275279,103.8071173
ChIJIbmBInAb2jER9bXyCvLsEzE,Gary Goh Music (Vocal Coach / Guitar & Singing Lessons),OPERATIONAL,"{'location': {'lat': 1.2767542, 'lng': 103.8068191}, 'viewport': {'northeast': {'lat': 1.278098580291502, 'lng': 103.8081166302915}, 'southwest': {'lat': 1.275400619708498, 'lng': 103.8054186697085}}}",,11.0,5.0,"['school', 'point_of_interest', 'establishment']",91A Telok Blangah Street 31,,1.2767542,103.8068191
ChIJXXNIRt0b2jERsWdaCRsP2tg,PCF Sparkletots @ Telok Blangah Blk 44,OPERATIONAL,"{'location': {'lat': 1.2714028, 'lng': 103.8106225}, 'viewport': {'northeast': {'lat': 1.272583030291502, 'lng': 103.8116148302915}, 'southwest': {'lat': 1.269885069708498, 'lng': 103.8089168697085}}}",,8.0,3.6,"['school', 'point_of_interest', 'establishment']","Blk 44 Telok Blangah Drive, #01-19 / 51",,1.2714028,103.8106225
ChIJ1278pRwb2jER5mLbqcDeKCY,SAFRA Mount Faber,OPERATIONAL,"{'location': {'lat': 1.277675, 'lng': 103.8173155}, 'viewport': {'northeast': {'lat': 1.279058630291502, 'lng': 103.8187021802915}, 'southwest': {'lat': 1.276360669708498, 'lng': 103.8160042197085}}}",,2189.0,4.2,"['school', 'restaurant', 'food', 'point_of_interest', 'establishment']",2 Telok Blangah Way,,1.277675,103.8173155
ChIJyQnOdNkb2jERxJazkUisgjM,NurtureStars @ SAFRA Mount Faber,OPERATIONAL,"{'location': {'lat': 1.2773934, 'lng': 103.8176314}, 'viewport': {'northeast': {'lat': 1.278789380291502, 'lng': 103.8189496802915}, 'southwest': {'lat': 1.276091419708498, 'lng': 103.8162517197085}}}",,11.0,3.9,"['school', 'point_of_interest', 'establishment']","2 Telok Blangah Way, #01-02",,1.2773934,103.8176314
ChIJm90pfN8b2jER_nzfIjqbEDg,M.Y World @ Telok Blangah Rise,OPERATIONAL,"{'location': {'lat': 1.2738911, 'lng': 103.8213529}, 'viewport': {'northeast': {'lat': 1.275162630291502, 'lng': 103.8227570802915}, 'southwest': {'lat': 1.272464669708498, 'lng': 103.8200591197085}}}",,5.0,4.8,"['school', 'point_of_interest', 'establishment']","29 Telok Blangah Rise, #01-231",,1.2738911,103.8213529
ChIJ_doVuBcb2jERHRvv787vrQA,Superland Pre-School (Radin Mas),OPERATIONAL,"{'location': {'lat': 1.2758046, 'lng': 103.8199085}, 'viewport': {'northeast': {'lat': 1.277099630291502, 'lng': 103.8213616802915}, 'southwest': {'lat': 1.274401669708498, 'lng': 103.8186637197085}}}",,1.0,5.0,"['school', 'point_of_interest', 'establishment']","51 Telok Blangah Crescent, #02-01/02",,1.2758046,103.8199085
ChIJOQYmVGEZ2jERgv_Fb5Daaes,Little Footprints Preschool @ Bukit Purmei/Bukit Merah,OPERATIONAL,"{'location': {'lat': 1.2748135, 'lng': 103.8272244}, 'viewport': {'northeast': {'lat': 1.276258180291502, 'lng': 103.8285121302915}, 'southwest': {'lat': 1.273560219708498, 'lng': 103.8258141697085}}}",,16.0,4.7,"['school', 'point_of_interest', 'establishment']",113 Bukit Purmei Road,,1.2748135,103.8272244
ChIJm90pfN8b2jER_nzfIjqbEDg,M.Y World @ Telok Blangah Rise,OPERATIONAL,"{'location': {'lat': 1.2738911, 'lng': 103.8213529}, 'viewport': {'northeast': {'lat': 1.275162630291502, 'lng': 103.8227570802915}, 'southwest': {'lat': 1.272464669708498, 'lng': 103.8200591197085}}}",,5.0,4.8,"['school', 'point_of_interest', 'establishment']","29 Telok Blangah Rise, #01-231",,1.2738911,103.8213529
ChIJVVWlkNgb2jERTOL4ht-jYJM,PCF Sparkletots @ Radin Mas Blk 18,OPERATIONAL,"{'location': {'lat': 1.277911, 'lng': 103.822576}, 'viewport': {'northeast': {'lat': 1.279186280291502, 'lng': 103.8243594302915}, 'southwest': {'lat': 1.276488319708498, 'lng': 103.8216614697085}}}",,1.0,5.0,"['school', 'point_of_interest', 'establishment']","Blk 18 Telok Blangah Crescent, #01-168",,1.277911,103.822576
ChIJTandfd8b2jERvH-IB8AR7Bk,Life Community Services Society - Telok Blangah,OPERATIONAL,"{'location': {'lat': 1.2731545, 'lng': 103.8215258}, 'viewport': {'northeast': {'lat': 1.274508130291502, 'lng': 103.8228138802915}, 'southwest': {'lat': 1.271810169708498, 'lng': 103.8201159197085}}}",,,,"['school', 'point_of_interest', 'establishment']",32 Telok Blangah Rise,,1.2731545,103.8215258
ChIJq6qqqmcZ2jERnmBg6WoXr6o,CHIJ (Kellock),OPERATIONAL,"{'location': {'lat': 1.2750626, 'lng': 103.8283114}, 'viewport': {'northeast': {'lat': 1.276415880291502, 'lng': 103.8296766302915}, 'southwest': {'lat': 1.273717919708498, 'lng': 103.8269786697085}}}",,,,"['primary_school', 'school', 'point_of_interest', 'establishment']",1 Bukit Teresa Road,,1.2750626,103.8283114
ChIJ_7O4Q2EZ2jERXzrdmplnkPY,Haven Schoolhouse (Bukit Purmei Preschool),OPERATIONAL,"{'location': {'lat': 1.2722534, 'lng': 103.8264681}, 'viewport': {'northeast': {'lat': 1.273477830291502, 'lng': 103.8278210802915}, 'southwest': {'lat': 1.270779869708498, 'lng': 103.8251231197085}}}",,13.0,4.5,"['school', 'point_of_interest', 'establishment']","102 Bukit Purmei Road, Block 102",,1.2722534,103.8264681
ChIJeUBgqWYZ2jER4ROfWmJw9iY,Radin Mas Primary School,OPERATIONAL,"{'location': {'lat': 1.2750693, 'lng': 103.8238799}, 'viewport': {'northeast': {'lat': 1.276227530291502, 'lng': 103.8252839302915}, 'southwest': {'lat': 1.273529569708498, 'lng': 103.8225859697085}}}",,,,"['primary_school', 'secondary_school', 'school', 'point_of_interest', 'establishment']",1 Bukit Purmei Avenue,,1.2750693,103.8238799
ChIJf3PVtnwZ2jERqkNefsBozKM,"Banyan Tree - Tiong Bahru | Student Care, Kindergarten & Playgroup",OPERATIONAL,"{'location': {'lat': 1.2802655, 'lng': 103.8263755}, 'viewport': {'northeast': {'lat': 1.281550630291502, 'lng': 103.8275953302915}, 'southwest': {'lat': 1.278852669708498, 'lng': 103.8248973697085}}}",,49.0,4.4,"['school', 'point_of_interest', 'establishment']","111 Jalan Bukit Merah, #01-1676/1678",,1.2802655,103.8263755
ChIJX8-72Tga2jER7UmRKLlbX7g,CHIJ St Theresa's Convent,OPERATIONAL,"{'location': {'lat': 1.2757944, 'lng': 103.8222117}, 'viewport': {'northeast': {'lat': 1.277083630291502, 'lng': 103.8237589802915}, 'southwest': {'lat': 1.274385669708498, 'lng': 103.8210610197085}}}",,,,"['secondary_school', 'school', 'point_of_interest', 'establishment']",160 Lower Delta Road,,1.2757944,103.8222117
ChIJAQAQaGEZ2jERxxK1e6jqWCQ,Kingfisher Science Learning Centre,OPERATIONAL,"{'location': {'lat': 1.2745295, 'lng': 103.8259281}, 'viewport': {'northeast': {'lat': 1.275962380291502, 'lng': 103.8272795802915}, 'southwest': {'lat': 1.273264419708498, 'lng': 103.8245816197085}}}",,,,"['school', 'primary_school', 'point_of_interest', 'establishment']","112 Bukit Purmei Road, #01-205, Singapore",,1.2745295,103.8259281
ChIJ80-TZGMZ2jER07TvBO32Z9U,My First Skool at Blk 137 Jalan Bukit Merah,OPERATIONAL,"{'location': {'lat': 1.2781766, 'lng': 103.8270126}, 'viewport': {'northeast': {'lat': 1.279619430291502, 'lng': 103.8282969302915}, 'southwest': {'lat': 1.276921469708498, 'lng': 103.8255989697085}}}",,7.0,4.7,"['school', 'point_of_interest', 'establishment']","137 Jalan Bukit Merah, #01-1380 Block 137",,1.2781766,103.8270126
ChIJ_doVuBcb2jERHRvv787vrQA,Superland Pre-School (Radin Mas),OPERATIONAL,"{'location': {'lat': 1.2758046, 'lng': 103.8199085}, 'viewport': {'northeast': {'lat': 1.277099630291502, 'lng': 103.8213616802915}, 'southwest': {'lat': 1.274401669708498, 'lng': 103.8186637197085}}}",,1.0,5.0,"['school', 'point_of_interest', 'establishment']","51 Telok Blangah Crescent, #02-01/02",,1.2758046,103.8199085
ChIJGeHAkQ8Z2jER6K3rivAhLvQ,AddedEducation,OPERATIONAL,"{'location': {'lat': 1.2802849, 'lng': 103.822894}, 'viewport': {'northeast': {'lat': 1.281717180291502, 'lng': 103.8242417302915}, 'southwest': {'lat': 1.279019219708498, 'lng': 103.8215437697085}}}",,4.0,4.0,"['school', 'point_of_interest', 'establishment']","120 Lower Delta Road, #10-12 Cendex Centre, Singapore",,1.2802849,103.822894
ChIJNVaBOJkZ2jERkr8GWGhrlAM,Star Learners @ Bukit Merah | Preschool & Childcare,OPERATIONAL,"{'location': {'lat': 1.2789612, 'lng': 103.8276263}, 'viewport': {'northeast': {'lat': 1.280357330291502, 'lng': 103.8288935302915}, 'southwest': {'lat': 1.277659369708498, 'lng': 103.8261955697085}}}",,15.0,4.8,"['school', 'point_of_interest', 'establishment']","134 Jalan Bukit Merah, #01-1420 Block 134, Singapore",,1.2789612,103.8276263
ChIJhw4N38wZ2jERgh159KcxYHU,BANYAN TREE Tiong Bahru Kindergarten | Nursery & Playgroup,CLOSED_TEMPORARILY,"{'location': {'lat': 1.2802943, 'lng': 103.8263809}, 'viewport': {'northeast': {'lat': 1.281539530291502, 'lng': 103.8276685802915}, 'southwest': {'lat': 1.278841569708498, 'lng': 103.8249706197085}}}",,,,"['school', 'point_of_interest', 'establishment']","111 Jalan Bukit Merah, #02-1676",True,1.2802943,103.8263809
ChIJyTDiQH0Z2jER6OC_t2MJjSg,Microvision,OPERATIONAL,"{'location': {'lat': 1.2808031, 'lng': 103.8229066}, 'viewport': {'northeast': {'lat': 1.282235330291502, 'lng': 103.8242523302915}, 'southwest': {'lat': 1.279537369708498, 'lng': 103.8215543697085}}}",,,,"['school', 'point_of_interest', 'establishment']","1091 Lower Delta Road, #03-03",,1.2808031,103.8229066
ChIJf1p3J5sX2jERw7Pvrrt_GCU,Saint Clare School,OPERATIONAL,"{'location': {'lat': 1.2741078, 'lng': 103.8327887}, 'viewport': {'northeast': {'lat': 1.275393530291502, 'lng': 103.8340991302915}, 'southwest': {'lat': 1.272695569708498, 'lng': 103.8314011697085}}}",,,,"['school', 'point_of_interest', 'establishment']","10 Raeburn Park, #01-09",,1.2741078,103.8327887
ChIJGZTohGUZ2jERKZsJu37vGRE,Singapore Sikh Education Foundation,OPERATIONAL,"{'location': {'lat': 1.2770523, 'lng': 103.8325375}, 'viewport': {'northeast': {'lat': 1.278440130291502, 'lng': 103.8338169302915}, 'southwest': {'lat': 1.275742169708498, 'lng': 103.8311189697085}}}",,1.0,5.0,"['school', 'point_of_interest', 'establishment']","6th Floor, The Sikh Centre,, 9 Jalan Bukit Merah",,1.2770523,103.8325375
ChIJq6qqqmcZ2jERnmBg6WoXr6o,CHIJ (Kellock),OPERATIONAL,"{'location': {'lat': 1.2750626, 'lng': 103.8283114}, 'viewport': {'northeast': {'lat': 1.276415880291502, 'lng': 103.8296766302915}, 'southwest': {'lat': 1.273717919708498, 'lng': 103.8269786697085}}}",,,,"['primary_school', 'school', 'point_of_interest', 'establishment']",1 Bukit Teresa Road,,1.2750626,103.8283114
ChIJOQYmVGEZ2jERgv_Fb5Daaes,Little Footprints Preschool @ Bukit Purmei/Bukit Merah,OPERATIONAL,"{'location': {'lat': 1.2748135, 'lng': 103.8272244}, 'viewport': {'northeast': {'lat': 1.276258180291502, 'lng': 103.8285121302915}, 'southwest': {'lat': 1.273560219708498, 'lng': 103.8258141697085}}}",,16.0,4.7,"['school', 'point_of_interest', 'establishment']",113 Bukit Purmei Road,,1.2748135,103.8272244
ChIJAwAAIHAZ2jERWb0F8dl1h4c,Little Skool-House SingHealth Tower,OPERATIONAL,"{'location': {'lat': 1.2779352, 'lng': 103.8353809}, 'viewport': {'northeast': {'lat': 1.279336980291502, 'lng': 103.8366650302915}, 'southwest': {'lat': 1.276639019708498, 'lng': 103.8339670697085}}}",,8.0,4.6,"['school', 'point_of_interest', 'establishment']","10 Hospital Boulevard, #05-01 SingHealth Tower",,1.2779352,103.8353809
ChIJH75SOXsZ2jERxxwDBtkLhck,PCF Sparkletots @ Tanjong Pagar-Tiong Bahru Blk 130,OPERATIONAL,"{'location': {'lat': 1.2805035, 'lng': 103.8292858}, 'viewport': {'northeast': {'lat': 1.282035880291502, 'lng': 103.8305772802915}, 'southwest': {'lat': 1.279337919708498, 'lng': 103.8278793197085}}}",,1.0,5.0,"['school', 'point_of_interest', 'establishment']","Blk 130 Kim Tian Road, #01-157",,1.2805035,103.8292858
ChIJU9QO5GgZ2jEROujk5hyCRos,Carpe Diem Springs Preschool,OPERATIONAL,"{'location': {'lat': 1.274206, 'lng': 103.8354632}, 'viewport': {'northeast': {'lat': 1.275696680291502, 'lng': 103.8370299802915}, 'southwest': {'lat': 1.272998719708498, 'lng': 103.8343320197085}}}",,26.0,4.7,"['school', 'point_of_interest', 'establishment']","108 Spottiswoode Park Road, #01-126",,1.274206,103.8354632
ChIJDW73vf3udkMRxszYpNi5S_I,STEAM Language and Music Centre,OPERATIONAL,"{'location': {'lat': 1.273548, 'lng': 103.833406}, 'viewport': {'northeast': {'lat': 1.274897880291502, 'lng': 103.8348435802915}, 'southwest': {'lat': 1.272199919708498, 'lng': 103.8321456197085}}}",,,,"['school', 'store', 'point_of_interest', 'establishment']",10 Raeburn Park,,1.273548,103.833406
ChIJNVaBOJkZ2jERkr8GWGhrlAM,Star Learners @ Bukit Merah | Preschool & Childcare,OPERATIONAL,"{'location': {'lat': 1.2789612, 'lng': 103.8276263}, 'viewport': {'northeast': {'lat': 1.280357330291502, 'lng': 103.8288935302915}, 'southwest': {'lat': 1.277659369708498, 'lng': 103.8261955697085}}}",,15.0,4.8,"['school', 'point_of_interest', 'establishment']","134 Jalan Bukit Merah, #01-1420 Block 134, Singapore",,1.2789612,103.8276263
ChIJ80-TZGMZ2jER07TvBO32Z9U,My First Skool at Blk 137 Jalan Bukit Merah,OPERATIONAL,"{'location': {'lat': 1.2781766, 'lng': 103.8270126}, 'viewport': {'northeast': {'lat': 1.279619430291502, 'lng': 103.8282969302915}, 'southwest': {'lat': 1.276921469708498, 'lng': 103.8255989697085}}}",,7.0,4.7,"['school', 'point_of_interest', 'establishment']","137 Jalan Bukit Merah, #01-1380 Block 137",,1.2781766,103.8270126
ChIJ6S-Jay4Z2jERyIsHqWUcA_E,CCDC training Center,OPERATIONAL,"{'location': {'lat': 1.2735336, 'lng': 103.8348104}, 'viewport': {'northeast': {'lat': 1.274793680291502, 'lng': 103.8361441802915}, 'southwest': {'lat': 1.272095719708498, 'lng': 103.8334462197085}}}",,3.0,5.0,"['school', 'point_of_interest', 'establishment']","107 Spottiswoode Park Road, Block 107, Singapore",,1.2735336,103.8348104
ChIJrcre8hIZ2jERC6BD9woJR8Q,Melodious Piano Studio | Piano Lessons Bukit Merah Redhill Tiong Bahru | Piano Lessons for Beginner | ABRSM Exam,OPERATIONAL,"{'location': {'lat': 1.2799683, 'lng': 103.8286916}, 'viewport': {'northeast': {'lat': 1.281118880291502, 'lng': 103.8298820802915}, 'southwest': {'lat': 1.278420919708498, 'lng': 103.8271841197085}}}",,61.0,4.9,"['school', 'store', 'point_of_interest', 'establishment']","131 Jalan Bukit Merah, #01-1565",,1.2799683,103.8286916
ChIJ7UZPsmQZ2jER-GdKFlpw534,Xin Yu Wen Language Centre,OPERATIONAL,"{'location': {'lat': 1.2799683, 'lng': 103.8286916}, 'viewport': {'northeast': {'lat': 1.281118880291502, 'lng': 103.8298820802915}, 'southwest': {'lat': 1.278420919708498, 'lng': 103.8271841197085}}}",,,,"['secondary_school', 'school', 'point_of_interest', 'establishment']","131 Jalan Bukit Merah, #01-1565, Singapore",,1.2799683,103.8286916
ChIJD6p4N3sZ2jERQ6bclBCg760,Pap Community Foundation,OPERATIONAL,"{'location': {'lat': 1.280472, 'lng': 103.8293554}, 'viewport': {'northeast': {'lat': 1.282020130291502, 'lng': 103.8305799802915}, 'southwest': {'lat': 1.279322169708498, 'lng': 103.8278820197085}}}",,,,"['school', 'point_of_interest', 'establishment']","130 Kim Tian Road, Block 130 Block 130",,1.280472,103.8293554
ChIJt82h4m4Z2jERPxMdNiq-8ss,Highlander Coffee Espresso Bar,OPERATIONAL,"{'location': {'lat': 1.276779, 'lng': 103.83613}, 'viewport': {'northeast': {'lat': 1.278159280291502, 'lng': 103.8374513302915}, 'southwest': {'lat': 1.275461319708498, 'lng': 103.8347533697085}}}",1.0,231.0,4.7,"['cafe', 'school', 'food', 'point_of_interest', 'establishment']",49 Kampong Bahru Road,,1.276779,103.83613
ChIJAwAAIHAZ2jERWb0F8dl1h4c,Little Skool-House SingHealth Tower,OPERATIONAL,"{'location': {'lat': 1.2779352, 'lng': 103.8353809}, 'viewport': {'northeast': {'lat': 1.279336980291502, 'lng': 103.8366650302915}, 'southwest': {'lat': 1.276639019708498, 'lng': 103.8339670697085}}}",,8.0,4.6,"['school', 'point_of_interest', 'establishment']","10 Hospital Boulevard, #05-01 SingHealth Tower",,1.2779352,103.8353809
ChIJua_V-W4Z2jERy9uYWpNEGZQ,What's Your Jam?,OPERATIONAL,"{'location': {'lat': 1.2770771, 'lng': 103.8365546}, 'viewport': {'northeast': {'lat': 1.278469980291502, 'lng': 103.8378544302915}, 'southwest': {'lat': 1.275772019708498, 'lng': 103.8351564697085}}}",,25.0,4.6,"['school', 'store', 'point_of_interest', 'establishment']",7B Kampong Bahru Road,,1.2770771,103.8365546
ChIJY57NUAoZ2jERw-tuz3TZ-bY,Studio De S,OPERATIONAL,"{'location': {'lat': 1.2770847, 'lng': 103.8365479}, 'viewport': {'northeast': {'lat': 1.278478530291502, 'lng': 103.8378562802915}, 'southwest': {'lat': 1.275780569708498, 'lng': 103.8351583197085}}}",,5.0,5.0,"['school', 'point_of_interest', 'establishment']","23 Kampong Bahru Road, #02-04",,1.2770847,103.8365479
ChIJU9QO5GgZ2jEROujk5hyCRos,Carpe Diem Springs Preschool,OPERATIONAL,"{'location': {'lat': 1.274206, 'lng': 103.8354632}, 'viewport': {'northeast': {'lat': 1.275696680291502, 'lng': 103.8370299802915}, 'southwest': {'lat': 1.272998719708498, 'lng': 103.8343320197085}}}",,26.0,4.7,"['school', 'point_of_interest', 'establishment']","108 Spottiswoode Park Road, #01-126",,1.274206,103.8354632
ChIJVd_PRGwZ2jERSyjZ-EBTaiE,PCF Sparkletots @ Tanjong Pagar-Tiong Bahru Blk 1E,OPERATIONAL,"{'location': {'lat': 1.2766392, 'lng': 103.8411766}, 'viewport': {'northeast': {'lat': 1.277873130291502, 'lng': 103.8424363802915}, 'southwest': {'lat': 1.275175169708498, 'lng': 103.8397384197085}}}",,,,"['school', 'point_of_interest', 'establishment']","Blk 1E Cantonment Road, #03-49",,1.2766392,103.8411766
ChIJBwDYUGwZ2jERJ62Se9ZesAU,Modern Montessori Pinnacle - MMI,OPERATIONAL,"{'location': {'lat': 1.276945, 'lng': 103.841487}, 'viewport': {'northeast': {'lat': 1.278026030291502, 'lng': 103.8425915802915}, 'southwest': {'lat': 1.275328069708498, 'lng': 103.8398936197085}}}",,2.0,4.0,"['school', 'point_of_interest', 'establishment']","1D Cantonment Road, #03-37, Singapore",,1.276945,103.841487
ChIJiQbSnGwZ2jERJFNKccdSS3A,My First Skool at Blk 2 Tanjong Pagar Plaza,OPERATIONAL,"{'location': {'lat': 1.2752579, 'lng': 103.8425473}, 'viewport': {'northeast': {'lat': 1.276373980291502, 'lng': 103.8439443302915}, 'southwest': {'lat': 1.273676019708498, 'lng': 103.8412463697085}}}",,2.0,5.0,"['school', 'point_of_interest', 'establishment']","Blk 2 Tanjong Pagar Plaza, #03-35",,1.2752579,103.8425473
ChIJVSyoe2wZ2jERv97i-f1Ns74,Cantonment Primary School,OPERATIONAL,"{'location': {'lat': 1.2754926, 'lng': 103.8399129}, 'viewport': {'northeast': {'lat': 1.276656830291503, 'lng': 103.8412913802915}, 'southwest': {'lat': 1.273958869708498, 'lng': 103.8385934197085}}}",,,,"['primary_school', 'secondary_school', 'school', 'point_of_interest', 'establishment']",1 Cantonment Close,,1.2754926,103.8399129
ChIJkyYhnW4Z2jERhAF_dvUXTSs,Pap Community Foundation,OPERATIONAL,"{'location': {'lat': 1.2767766, 'lng': 103.8388475}, 'viewport': {'northeast': {'lat': 1.278166980291502, 'lng': 103.8401903802915}, 'southwest': {'lat': 1.275469019708498, 'lng': 103.8374924197085}}}",,,,"['school', 'point_of_interest', 'establishment']","6 Everton Park, #01-02 Block 4",,1.2767766,103.8388475
ChIJeRaVVoYZ2jERXzqcYbw3RTc,Teadent @ Kampong Bahru,OPERATIONAL,"{'location': {'lat': 1.2770827, 'lng': 103.8365477}, 'viewport': {'northeast': {'lat': 1.278477030291502, 'lng': 103.8378556302915}, 'southwest': {'lat': 1.275779069708498, 'lng': 103.8351576697085}}}",,1.0,5.0,"['school', 'point_of_interest', 'establishment']","23 Kampong Bahru Road, #04-04",,1.2770827,103.8365477
ChIJ2VzqOGwZ2jER5rzcSCmWjMc,Kidspace Learning Place Cantonment,OPERATIONAL,"{'location': {'lat': 1.276612, 'lng': 103.840361}, 'viewport': {'northeast': {'lat': 1.277937730291502, 'lng': 103.8416529302915}, 'southwest': {'lat': 1.275239769708498, 'lng': 103.8389549697085}}}",,,,"['school', 'point_of_interest', 'establishment']","Maritime House, #04-00, 120 Cantonment Rd, Singapore 089760, Marine House",,1.276612,103.840361
ChIJ6bQy4F8Z2jERA8ZKa3WYbWw,Piano Lesson APM Cantonment Close,OPERATIONAL,"{'location': {'lat': 1.2753661, 'lng': 103.8404095}, 'viewport': {'northeast': {'lat': 1.276562280291502, 'lng': 103.8417905302915}, 'southwest': {'lat': 1.273864319708498, 'lng': 103.8390925697085}}}",,8.0,5.0,"['school', 'store', 'point_of_interest', 'establishment']",Cantonment Close,,1.2753661,103.8404095
ChIJ0QH7wmsZ2jERsT7MElaO_7U,East Bay Consultancy,OPERATIONAL,"{'location': {'lat': 1.273786, 'lng': 103.8398872}, 'viewport': {'northeast': {'lat': 1.275166880291502, 'lng': 103.8413228802915}, 'southwest': {'lat': 1.272468919708498, 'lng': 103.8386249197085}}}",,,,"['school', 'point_of_interest', 'establishment']","17 Cantonment Close, Block 17, Singapore",,1.273786,103.8398872
ChIJb_r9XWwZ2jER9myUjxaAc7w,TANJONG PAGAR-TIONG BAHRU EDUCATION CENTRE,OPERATIONAL,"{'location': {'lat': 1.2766392, 'lng': 103.8411766}, 'viewport': {'northeast': {'lat': 1.277873130291502, 'lng': 103.8424363802915}, 'southwest': {'lat': 1.275175169708498, 'lng': 103.8397384197085}}}",,,,"['school', 'point_of_interest', 'establishment']","1E Cantonment Road, Singapore",,1.2766392,103.8411766
ChIJCRJZ7MwZ2jERzmE-FuPDe0o,Haven Schoolhouse (Tanjong Pagar Infant & Toddler Centre),OPERATIONAL,"{'location': {'lat': 1.2762638, 'lng': 103.8417177}, 'viewport': {'northeast': {'lat': 1.277542980291502, 'lng': 103.8431543302915}, 'southwest': {'lat': 1.274845019708498, 'lng': 103.8404563697085}}}",,9.0,5.0,"['school', 'point_of_interest', 'establishment']","101 Cantonment Road, #03-01 Community Club",,1.2762638,103.8417177
ChIJ23tOtG0Z2jERBQjIOlsu9-w,Stag Match,OPERATIONAL,"{'location': {'lat': 1.2774336, 'lng': 103.8415913}, 'viewport': {'northeast': {'lat': 1.278270330291502, 'lng': 103.8426437302915}, 'southwest': {'lat': 1.275572369708498, 'lng': 103.8399457697085}}}",,1.0,5.0,"['school', 'point_of_interest', 'establishment']","BLK 1G, #03-77, Cantonment Road, Pinnacle @ Duxton",,1.2774336,103.8415913
ChIJ6S-Jay4Z2jERyIsHqWUcA_E,CCDC training Center,OPERATIONAL,"{'location': {'lat': 1.2735336, 'lng': 103.8348104}, 'viewport': {'northeast': {'lat': 1.274793680291502, 'lng': 103.8361441802915}, 'southwest': {'lat': 1.272095719708498, 'lng': 103.8334462197085}}}",,3.0,5.0,"['school', 'point_of_interest', 'establishment']","107 Spottiswoode Park Road, Block 107, Singapore",,1.2735336,103.8348104
ChIJOdkdmW0Z2jERtzytutRx8Ts,The Commons,OPERATIONAL,"{'location': {'lat': 1.2787267, 'lng': 103.8414382}, 'viewport': {'northeast': {'lat': 1.280036430291502, 'lng': 103.8428302302915}, 'southwest': {'lat': 1.277338469708498, 'lng': 103.8401322697085}}}",,,,"['school', 'point_of_interest', 'establishment']",124 Neil Road,,1.2787267,103.8414382
ChIJ7TX0kGwZ2jERwoNvLj0ADek,Mulberry Learning Centre @ Tanjong Pagar,OPERATIONAL,"{'location': {'lat': 1.2763368, 'lng': 103.8429097}, 'viewport': {'northeast': {'lat': 1.27711325, 'lng': 103.8443333302915}, 'southwest': {'lat': 1.27400745, 'lng': 103.8416353697085}}}",,36.0,4.8,"['school', 'point_of_interest', 'establishment']","5 Tanjong Pagar Plaza, #02-01",,1.2763368,103.8429097
ChIJ4WpxdxMZ2jERyou6EccePSs,Nanyang Institute of Management,OPERATIONAL,"{'location': {'lat': 1.2758149, 'lng': 103.847272}, 'viewport': {'northeast': {'lat': 1.277185080291502, 'lng': 103.8485148802915}, 'southwest': {'lat': 1.274487119708498, 'lng': 103.8458169197085}}}",,2.0,3.0,"['school', 'point_of_interest', 'establishment']","8 Shenton Way, Singapore",,1.2758149,103.847272
ChIJWw4PRBMZ2jERE-L7Pkmamu4,Oxford Tuition,OPERATIONAL,"{'location': {'lat': 1.275848, 'lng': 103.845971}, 'viewport': {'northeast': {'lat': 1.277106280291502, 'lng': 103.8474360802915}, 'southwest': {'lat': 1.274408319708498, 'lng': 103.8447381197085}}}",,,,"['school', 'store', 'point_of_interest', 'establishment']","10 Anson Road, #15-14 International Plaza",,1.275848,103.845971
ChIJ642LmRIZ2jER_IYBzIQMjiw,Kinderland Preschool @ Ministry of National Development,OPERATIONAL,"{'location': {'lat': 1.279519, 'lng': 103.8465378}, 'viewport': {'northeast': {'lat': 1.280418980291502, 'lng': 103.8474398302915}, 'southwest': {'lat': 1.277721019708498, 'lng': 103.8447418697085}}}",,42.0,4.6,"['school', 'point_of_interest', 'establishment']","7 Maxwell Road MND Complex Annexe B, #06-02",,1.279519,103.8465378
ChIJSzhVRBMZ2jERfN2B_YwlUnQ,Learning Hands,OPERATIONAL,"{'location': {'lat': 1.2757785, 'lng': 103.8457225}, 'viewport': {'northeast': {'lat': 1.277033380291502, 'lng': 103.8473118302915}, 'southwest': {'lat': 1.274335419708498, 'lng': 103.8446138697085}}}",,,,"['school', 'point_of_interest', 'establishment']","No. 10, Anson Road, #26-04, International Plaza, 079903",,1.2757785,103.8457225
ChIJJ1vrQxMZ2jERSsdjv5aDGhs,SG Music Lessons,OPERATIONAL,"{'location': {'lat': 1.275848, 'lng': 103.845971}, 'viewport': {'northeast': {'lat': 1.277106280291502, 'lng': 103.8474360802915}, 'southwest': {'lat': 1.274408319708498, 'lng': 103.8447381197085}}}",,,,"['school', 'point_of_interest', 'establishment']",10 Anson Road,,1.275848,103.845971
ChIJJ1vrQxMZ2jERqV3Uau9v1q0,Barclyne College International,OPERATIONAL,"{'location': {'lat': 1.2757021, 'lng': 103.8461091}, 'viewport': {'northeast': {'lat': 1.277030330291502, 'lng': 103.8475051302915}, 'southwest': {'lat': 1.274332369708498, 'lng': 103.8448071697085}}}",,,,"['school', 'point_of_interest', 'establishment']","10 Anson Road, #27-17International, Plaza",,1.2757021,103.8461091
ChIJI_9gJBMZ2jERY19DYut_-lk,Onis Language School,OPERATIONAL,"{'location': {'lat': 1.2772599, 'lng': 103.8463039}, 'viewport': {'northeast': {'lat': 1.278590880291502, 'lng': 103.8476379302915}, 'southwest': {'lat': 1.275892919708498, 'lng': 103.8449399697085}}}",,,,"['university', 'secondary_school', 'school', 'point_of_interest', 'establishment']",32 Wallich Street,,1.2772599,103.8463039
ChIJefWRjmwZ2jERKyDyIbQTREc,Star Learners @ Tanjong Pagar | Preschool & Childcare,OPERATIONAL,"{'location': {'lat': 1.2763027, 'lng': 103.8429508}, 'viewport': {'northeast': {'lat': 1.277263980291502, 'lng': 103.8442445302915}, 'southwest': {'lat': 1.274566019708498, 'lng': 103.8415465697085}}}",,21.0,4.8,"['school', 'point_of_interest', 'establishment']","1 Tanjong Pagar Plaza, #02-01A",,1.2763027,103.8429508
ChIJiQbSnGwZ2jERJFNKccdSS3A,My First Skool at Blk 2 Tanjong Pagar Plaza,OPERATIONAL,"{'location': {'lat': 1.2752579, 'lng': 103.8425473}, 'viewport': {'northeast': {'lat': 1.276373980291502, 'lng': 103.8439443302915}, 'southwest': {'lat': 1.273676019708498, 'lng': 103.8412463697085}}}",,2.0,5.0,"['school', 'point_of_interest', 'establishment']","Blk 2 Tanjong Pagar Plaza, #03-35",,1.2752579,103.8425473
ChIJS9l9TW0Z2jERqP-1k9Tq8k4,School of Tutors,OPERATIONAL,"{'location': {'lat': 1.279136, 'lng': 103.844656}, 'viewport': {'northeast': {'lat': 1.280593930291502, 'lng': 103.8461799302915}, 'southwest': {'lat': 1.277895969708498, 'lng': 103.8434819697085}}}",,,,"['school', 'store', 'point_of_interest', 'establishment']",20 Maxwell Road,,1.279136,103.844656
ChIJ7_PaVG0Z2jERN_kI8Qqs8bY,Dance Castle,OPERATIONAL,"{'location': {'lat': 1.2789778, 'lng': 103.8447537}, 'viewport': {'northeast': {'lat': 1.280448280291502, 'lng': 103.8462828302915}, 'southwest': {'lat': 1.277750319708498, 'lng': 103.8435848697085}}}",,,,"['school', 'point_of_interest', 'establishment']","20 Maxwell Road, Singapore",,1.2789778,103.8447537
ChIJZe_CbrwZ2jERLE2BIkr9URM,The Centre for Inner Studies in Singapore Ltd,OPERATIONAL,"{'location': {'lat': 1.2765284, 'lng': 103.8481015}, 'viewport': {'northeast': {'lat': 1.277798080291502, 'lng': 103.8495794802915}, 'southwest': {'lat': 1.275100119708498, 'lng': 103.8468815197085}}}",,18.0,4.6,"['school', 'health', 'point_of_interest', 'establishment']","6A Shenton Way, #02-09/10 Downtown Gallery",,1.2765284,103.8481015
ChIJS9l9TW0Z2jERaTTztsSej7c,Kidsmeetup,OPERATIONAL,"{'location': {'lat': 1.2792508, 'lng': 103.8447681}, 'viewport': {'northeast': {'lat': 1.280678480291502, 'lng': 103.8462276802915}, 'southwest': {'lat': 1.277980519708498, 'lng': 103.8435297197085}}}",,,,"['school', 'point_of_interest', 'establishment']",20 Maxwell Road,,1.2792508,103.8447681
ChIJBwDYUGwZ2jERJ62Se9ZesAU,Modern Montessori Pinnacle - MMI,OPERATIONAL,"{'location': {'lat': 1.276945, 'lng': 103.841487}, 'viewport': {'northeast': {'lat': 1.278026030291502, 'lng': 103.8425915802915}, 'southwest': {'lat': 1.275328069708498, 'lng': 103.8398936197085}}}",,2.0,4.0,"['school', 'point_of_interest', 'establishment']","1D Cantonment Road, #03-37, Singapore",,1.276945,103.841487
ChIJQUuh1cYW2jERX3Y4uK1Xoao,Math Coffee - Secondary School Math Tuition,OPERATIONAL,"{'location': {'lat': 1.2784077, 'lng': 103.8477835}, 'viewport': {'northeast': {'lat': 1.279712130291502, 'lng': 103.8492180802915}, 'southwest': {'lat': 1.277014169708498, 'lng': 103.8465201197085}}}",,58.0,5.0,"['school', 'point_of_interest', 'establishment']","160 Robinson Road, #14-04",,1.2784077,103.8477835
ChIJAys1ZBQZ2jER2jL8meTb618,June’s Beauty School,OPERATIONAL,"{'location': {'lat': 1.2741956, 'lng': 103.8482499}, 'viewport': {'northeast': {'lat': 1.275691330291502, 'lng': 103.8496853302915}, 'southwest': {'lat': 1.272993369708498, 'lng': 103.8469873697085}}}",,,,"['school', 'point_of_interest', 'establishment']",,,1.2741956,103.8482499
ChIJ5_nUFwwZ2jER39xf186xhng,Rutgers Business School Asia Pacific,OPERATIONAL,"{'location': {'lat': 1.2781758, 'lng': 103.8480935}, 'viewport': {'northeast': {'lat': 1.279596180291502, 'lng': 103.8493730802915}, 'southwest': {'lat': 1.276898219708498, 'lng': 103.8466751197085}}}",,,,"['university', 'school', 'point_of_interest', 'establishment']","146 Robinson Road, # 07-01",,1.2781758,103.8480935
ChIJNwash68Z2jERzo1d3I9HOCE,LeClare Preschool,OPERATIONAL,"{'location': {'lat': 1.276181, 'lng': 103.8488134}, 'viewport': {'northeast': {'lat': 1.277649380291502, 'lng': 103.8501791802915}, 'southwest': {'lat': 1.274951419708498, 'lng': 103.8474812197085}}}",,17.0,4.8,"['school', 'point_of_interest', 'establishment']","7 Shenton Way #01-02, Singapore Conference Hall",,1.276181,103.8488134
ChIJVd_PRGwZ2jERSyjZ-EBTaiE,PCF Sparkletots @ Tanjong Pagar-Tiong Bahru Blk 1E,OPERATIONAL,"{'location': {'lat': 1.2766392, 'lng': 103.8411766}, 'viewport': {'northeast': {'lat': 1.277873130291502, 'lng': 103.8424363802915}, 'southwest': {'lat': 1.275175169708498, 'lng': 103.8397384197085}}}",,,,"['school', 'point_of_interest', 'establishment']","Blk 1E Cantonment Road, #03-49",,1.2766392,103.8411766
ChIJL3kmkZcZ2jERJQYBOBIwvgk,Peony Tokyo Nails & Eyelash Academy,OPERATIONAL,"{'location': {'lat': 1.2801876, 'lng': 103.8437397}, 'viewport': {'northeast': {'lat': 1.281600030291502, 'lng': 103.8450466802915}, 'southwest': {'lat': 1.278902069708498, 'lng': 103.8423487197085}}}",,35.0,4.5,"['school', 'point_of_interest', 'establishment']","3A Neil Road, #2nd floor",,1.2801876,103.8437397
ChIJJ7U1dxIZ2jERduuHxtmvqPk,GNS School of Business and Technology,OPERATIONAL,"{'location': {'lat': 1.2795102, 'lng': 103.8484079}, 'viewport': {'northeast': {'lat': 1.280897930291502, 'lng': 103.8496906802915}, 'southwest': {'lat': 1.278199969708498, 'lng': 103.8469927197085}}}",,1.0,5.0,"['school', 'point_of_interest', 'establishment']","139 Cecil Street, YSY Building, Singapore",,1.2795102,103.8484079
ChIJ1UW7cBMZ2jERkUDWq4dWArU,International Centre For Early Childhood,OPERATIONAL,"{'location': {'lat': 1.2759058, 'lng': 103.8473349}, 'viewport': {'northeast': {'lat': 1.277107330291502, 'lng': 103.8485744802915}, 'southwest': {'lat': 1.274409369708498, 'lng': 103.8458765197085}}}",,,,"['school', 'point_of_interest', 'establishment']","8 Shenton Way, Singapore",,1.2759058,103.8473349
ChIJ642LmRIZ2jER2mhIkH5uQkg,Aused Unied Singapore Pte. Ltd.,OPERATIONAL,"{'location': {'lat': 1.279376, 'lng': 103.846712}, 'viewport': {'northeast': {'lat': 1.280347480291502, 'lng': 103.8475269302915}, 'southwest': {'lat': 1.277649519708498, 'lng': 103.8448289697085}}}",,,,"['school', 'point_of_interest', 'establishment']",,,1.279376,103.846712
ChIJ7TX0kGwZ2jERwoNvLj0ADek,Mulberry Learning Centre @ Tanjong Pagar,OPERATIONAL,"{'location': {'lat': 1.2763368, 'lng': 103.8429097}, 'viewport': {'northeast': {'lat': 1.27711325, 'lng': 103.8443333302915}, 'southwest': {'lat': 1.27400745, 'lng': 103.8416353697085}}}",,36.0,4.8,"['school', 'point_of_interest', 'establishment']","5 Tanjong Pagar Plaza, #02-01",,1.2763368,103.8429097
ChIJJ1vrQxMZ2jERQGM_5ryO2NA,Linda Mandarin City Campus - Mandarin Course Singapore,OPERATIONAL,"{'location': {'lat': 1.2761243, 'lng': 103.8458341}, 'viewport': {'northeast': {'lat': 1.277329030291502, 'lng': 103.8473625802915}, 'southwest': {'lat': 1.274631069708498, 'lng': 103.8446646197085}}}",,773.0,4.9,"['school', 'point_of_interest', 'establishment']","10 Anson Road, #22-07A International Plaza",,1.2761243,103.8458341
ChIJkUoLuYwZ2jERT3jKoFTnSaw,The School of Make Up,OPERATIONAL,"{'location': {'lat': 1.2730079, 'lng': 103.8423365}, 'viewport': {'northeast': {'lat': 1.274284180291502, 'lng': 103.8435811302915}, 'southwest': {'lat': 1.271586219708498, 'lng': 103.8408831697085}}}",,1540.0,5.0,"['school', 'point_of_interest', 'establishment']","19 Keppel Road, #01-02 Jit Poh Building",,1.2730079,103.8423365
ChIJQzuuj_kZ2jER-DJONc4ds7Q,SOQ International Academy,OPERATIONAL,"{'location': {'lat': 1.2756333, 'lng': 103.8453626}, 'viewport': {'northeast': {'lat': 1.277114930291502, 'lng': 103.8470509302915}, 'southwest': {'lat': 1.274416969708498, 'lng': 103.8443529697085}}}",,1123.0,4.9,"['school', 'point_of_interest', 'establishment']","10 Anson Road, #23-08 International Plaza",,1.2756333,103.8453626
ChIJWwcNvuQZ2jERLyUO9s-9zH4,Thai Explorer,OPERATIONAL,"{'location': {'lat': 1.2761243, 'lng': 103.8458341}, 'viewport': {'northeast': {'lat': 1.277329030291502, 'lng': 103.8473625802915}, 'southwest': {'lat': 1.274631069708498, 'lng': 103.8446646197085}}}",,305.0,4.9,"['school', 'point_of_interest', 'establishment']","10 Anson Road, #22-07D International Plaza",,1.2761243,103.8458341
ChIJLyR_n9UZ2jERjZoXa_Fg6Ks,Vietnamese Explorer Language School,OPERATIONAL,"{'location': {'lat': 1.2761243, 'lng': 103.8458341}, 'viewport': {'northeast': {'lat': 1.277329030291502, 'lng': 103.8473625802915}, 'southwest': {'lat': 1.274631069708498, 'lng': 103.8446646197085}}}",,66.0,4.9,"['school', 'point_of_interest', 'establishment']","10 Anson Road, #22-07G International Plaza",,1.2761243,103.8458341
ChIJAQDARBMZ2jER3AhIkl2knSQ,Swimming Lessons SG,OPERATIONAL,"{'location': {'lat': 1.2756998, 'lng': 103.8458098}, 'viewport': {'northeast': {'lat': 1.277000980291502, 'lng': 103.8473554802915}, 'southwest': {'lat': 1.274303019708498, 'lng': 103.8446575197085}}}",,,,"['school', 'health', 'point_of_interest', 'establishment']",10 Anson Road,,1.2756998,103.8458098
ChIJ6y4hPt8Z2jERn73dnSwyH0s,Buffett Online School,OPERATIONAL,"{'location': {'lat': 1.2756998, 'lng': 103.8458098}, 'viewport': {'northeast': {'lat': 1.277000980291502, 'lng': 103.8473554802915}, 'southwest': {'lat': 1.274303019708498, 'lng': 103.8446575197085}}}",,112.0,4.7,"['school', 'point_of_interest', 'establishment']","10 Anson Road, #18-13 International Plaza, Singapore",,1.2756998,103.8458098
ChIJwdDSRhMZ2jERHEmNhBoL7aA,School of Language International- English & Chinese Courses Singapore,OPERATIONAL,"{'location': {'lat': 1.2756998, 'lng': 103.8458098}, 'viewport': {'northeast': {'lat': 1.277000980291502, 'lng': 103.8473554802915}, 'southwest': {'lat': 1.274303019708498, 'lng': 103.8446575197085}}}",,405.0,4.9,"['school', 'point_of_interest', 'establishment']","10 Anson Road, #20-07 International Plaza",,1.2756998,103.8458098
ChIJNx7Eplwe8KgR7AVzgJ5UWfU,iWorld Learning (CBD) - Learn English in Singapore & English course for adults & English for kids,OPERATIONAL,"{'location': {'lat': 1.275936, 'lng': 103.845903}, 'viewport': {'northeast': {'lat': 1.277334630291502, 'lng': 103.8473811802915}, 'southwest': {'lat': 1.274636669708498, 'lng': 103.8446832197085}}}",,35.0,5.0,"['school', 'point_of_interest', 'establishment']","10 Anson Road, #24-15 International Plaza, Singapore",,1.275936,103.845903
ChIJN_3rDokZ2jERIrVUfnBabSY,博林学校,OPERATIONAL,"{'location': {'lat': 1.2762806, 'lng': 103.845881}, 'viewport': {'northeast': {'lat': 1.277369030291502, 'lng': 103.8473885302915}, 'southwest': {'lat': 1.274671069708498, 'lng': 103.8446905697085}}}",,,,"['school', 'point_of_interest', 'establishment']","Anson Road, #10 International Plaza",,1.2762806,103.845881
ChIJPfZ1MbkZ2jERRiXdjfxL1VA,Morofé yamoussoukro,OPERATIONAL,"{'location': {'lat': 1.276109, 'lng': 103.845924}, 'viewport': {'northeast': {'lat': 1.277337380291502, 'lng': 103.8474025302915}, 'southwest': {'lat': 1.274639419708498, 'lng': 103.8447045697085}}}",,,,"['secondary_school', 'school', 'point_of_interest', 'establishment']",Singapore,,1.276109,103.845924
ChIJJ1vrQxMZ2jERhD_KOHYp4gE,Learner's Choice International,OPERATIONAL,"{'location': {'lat': 1.2761277, 'lng': 103.8459285}, 'viewport': {'northeast': {'lat': 1.277337830291502, 'lng': 103.8474059802915}, 'southwest': {'lat': 1.274639869708498, 'lng': 103.8447080197085}}}",,,,"['school', 'point_of_interest', 'establishment']",10 Anson Road,,1.2761277,103.8459285
ChIJ77lqQRMZ2jERpPQ2FPC-VJA,Treasure Chest Education,OPERATIONAL,"{'location': {'lat': 1.2759959, 'lng': 103.8459599}, 'viewport': {'northeast': {'lat': 1.277338730291502, 'lng': 103.8474129802915}, 'southwest': {'lat': 1.274640769708498, 'lng': 103.8447150197085}}}",,,,"['school', 'point_of_interest', 'establishment']",10 Anson Road,,1.2759959,103.8459599
ChIJJ1vrQxMZ2jERQicsKjX37GE,Uosa Asia Pacific Pte Ltd,OPERATIONAL,"{'location': {'lat': 1.275848, 'lng': 103.845971}, 'viewport': {'northeast': {'lat': 1.277106280291502, 'lng': 103.8474360802915}, 'southwest': {'lat': 1.274408319708498, 'lng': 103.8447381197085}}}",,,,"['university', 'secondary_school', 'school', 'point_of_interest', 'establishment']",10 Anson Road,,1.275848,103.845971
ChIJIzhWFRMZ2jER_jDlUD6C538,Singapore Life Guard Academy,OPERATIONAL,"{'location': {'lat': 1.275763, 'lng': 103.845962}, 'viewport': {'northeast': {'lat': 1.277036630291502, 'lng': 103.8474315802915}, 'southwest': {'lat': 1.274338669708498, 'lng': 103.8447336197085}}}",,,,"['school', 'point_of_interest', 'establishment']",10 Anson Road #26-01 International Plaza Singapore,,1.275763,103.845962
ChIJnZcuQBMZ2jERa-fiqE7f3f8,V3 Aquatic Club Pte Ltd,OPERATIONAL,"{'location': {'lat': 1.275753, 'lng': 103.84596}, 'viewport': {'northeast': {'lat': 1.277028230291502, 'lng': 103.8474305802915}, 'southwest': {'lat': 1.274330269708498, 'lng': 103.8447326197085}}}",,1.0,5.0,"['school', 'point_of_interest', 'establishment']",10 Anson Road #26-01A International Plaza Singapore,,1.275753,103.84596
ChIJPyaRXBMZ2jERTVe57bgNaik,Singapore Parenting Directory,OPERATIONAL,"{'location': {'lat': 1.275532, 'lng': 103.845958}, 'viewport': {'northeast': {'lat': 1.276890180291502, 'lng': 103.8473885302915}, 'southwest': {'lat': 1.274192219708498, 'lng': 103.8446905697085}}}",,,,"['school', 'point_of_interest', 'establishment']","10 Anson Road, #26-04, International Plaza, Singapore 079903",,1.275532,103.845958
ChIJ4fGWgJ8R2jERThANrsnUKlQ,The Radiant Spectrum,OPERATIONAL,"{'location': {'lat': 1.2757021, 'lng': 103.8461091}, 'viewport': {'northeast': {'lat': 1.277030330291502, 'lng': 103.8475051302915}, 'southwest': {'lat': 1.274332369708498, 'lng': 103.8448071697085}}}",,65.0,5.0,"['school', 'store', 'point_of_interest', 'establishment']","10 Anson Road, #16-16 International Plaza",,1.2757021,103.8461091
ChIJLaaYKBwZ2jERHRdm7KIPo2w,Norwegian Cultural Center,OPERATIONAL,"{'location': {'lat': 1.2771089, 'lng': 103.8454513}, 'viewport': {'northeast': {'lat': 1.278226230291502, 'lng': 103.8465258302915}, 'southwest': {'lat': 1.275528269708498, 'lng': 103.8438278697085}}}",,,,"['school', 'health', 'point_of_interest', 'establishment']",3 Wallich Street,,1.2771089,103.8454513
ChIJvRx3HTEZ2jERTaraxXwHcuI,Kh,OPERATIONAL,"{'location': {'lat': 1.274961, 'lng': 103.843575}, 'viewport': {'northeast': {'lat': 1.276241330291502, 'lng': 103.8447945302915}, 'southwest': {'lat': 1.273543369708498, 'lng': 103.8420965697085}}}",,,,"['secondary_school', 'school', 'point_of_interest', 'establishment']",Singapore,,1.274961,103.843575
ChIJV_spXWsZ2jERx-1bHvpjDcQ,Superland Pre-School (100AM),OPERATIONAL,"{'location': {'lat': 1.274488, 'lng': 103.8435226}, 'viewport': {'northeast': {'lat': 1.275924980291502, 'lng': 103.8449873302915}, 'southwest': {'lat': 1.273227019708498, 'lng': 103.8422893697085}}}",,10.0,5.0,"['school', 'point_of_interest', 'establishment']","100 Tras Street, 100am, Mall, #05-02",,1.274488,103.8435226
ChIJxUQJnBQZ2jERkwUE4JYnT5M,Institute of Banking and Finance Singapore,OPERATIONAL,"{'location': {'lat': 1.2748204, 'lng': 103.8468981}, 'viewport': {'northeast': {'lat': 1.276228980291502, 'lng': 103.8482833302915}, 'southwest': {'lat': 1.273531019708498, 'lng': 103.8455853697085}}}",,11.0,1.6,"['finance', 'school', 'point_of_interest', 'establishment']","10 Shenton Way, #13-07/08 MAS Building",,1.2748204,103.8468981
ChIJMTOd5mwZ2jER9BBeYCmSCNE,EduOne Education Center,OPERATIONAL,"{'location': {'lat': 1.2769945, 'lng': 103.8430093}, 'viewport': {'northeast': {'lat': 1.278304780291502, 'lng': 103.8444092302915}, 'southwest': {'lat': 1.275606819708498, 'lng': 103.8417112697085}}}",,3.0,5.0,"['school', 'point_of_interest', 'establishment']",7 Tanjong Pagar Plaza,,1.2769945,103.8430093
ChIJ02eVxRIZ2jERVpEnYSYgXv4,Liveworks Learning Centre,OPERATIONAL,"{'location': {'lat': 1.278302, 'lng': 103.8449418}, 'viewport': {'northeast': {'lat': 1.279645980291502, 'lng': 103.8463223802915}, 'southwest': {'lat': 1.276948019708498, 'lng': 103.8436244197085}}}",,,,"['university', 'secondary_school', 'school', 'point_of_interest', 'establishment']",28 Maxwell Road #03-04Singapore 069120,,1.278302,103.8449418
ChIJ41JMbdoZ2jERM3XzdVCZNf8,BODY WISDOM,OPERATIONAL,"{'location': {'lat': 1.2782924, 'lng': 103.8442963}, 'viewport': {'northeast': {'lat': 1.279632030291502, 'lng': 103.8456970802915}, 'southwest': {'lat': 1.276934069708498, 'lng': 103.8429991197085}}}",,,,"['school', 'health', 'point_of_interest', 'establishment']","42 Tras Street, #03-02, Singapore",,1.2782924,103.8442963
ChIJ_f3vvxQZ2jERRwJ4W4bF3rQ,You Education School,OPERATIONAL,"{'location': {'lat': 1.2739069, 'lng': 103.846216}, 'viewport': {'northeast': {'lat': 1.275176830291502, 'lng': 103.8476722802915}, 'southwest': {'lat': 1.272478869708498, 'lng': 103.8449743197085}}}",,,,"['university', 'secondary_school', 'school', 'point_of_interest', 'establishment']",70 Shenton Way,,1.2739069,103.846216
ChIJEYhXuBIZ2jERCTJH4PpNIHQ,The Children Learning Centre Pte Ltd,OPERATIONAL,"{'location': {'lat': 1.278909, 'lng': 103.845805}, 'viewport': {'northeast': {'lat': 1.280113980291502, 'lng': 103.8470734302915}, 'southwest': {'lat': 1.277416019708498, 'lng': 103.8443754697085}}}",,,,"['school', 'point_of_interest', 'establishment']",5 Maxwell Road,,1.278909,103.845805
ChIJxywPe0MZ2jERWnbayVx1Nck,School,OPERATIONAL,"{'location': {'lat': 1.2766845, 'lng': 103.8480423}, 'viewport': {'northeast': {'lat': 1.278028380291502, 'lng': 103.8493996802915}, 'southwest': {'lat': 1.275330419708498, 'lng': 103.8467017197085}}}",,,,"['school', 'point_of_interest', 'establishment']",Maxwell Link,,1.2766845,103.8480423
ChIJ0_XerRIZ2jERpoz3qNBOqVg,Maxwell School Of Langauages Pte Ltd,OPERATIONAL,"{'location': {'lat': 1.2792409, 'lng': 103.8448943}, 'viewport': {'northeast': {'lat': 1.280640430291502, 'lng': 103.8463143302915}, 'southwest': {'lat': 1.277942469708498, 'lng': 103.8436163697085}}}",,,,"['school', 'point_of_interest', 'establishment']",11 Maxwell Road,,1.2792409,103.8448943
ChIJC3XQUm0Z2jERfpISSaTgAp8,Rethasia International,OPERATIONAL,"{'location': {'lat': 1.2792559, 'lng': 103.8447685}, 'viewport': {'northeast': {'lat': 1.280682630291502, 'lng': 103.8462267802915}, 'southwest': {'lat': 1.277984669708498, 'lng': 103.8435288197085}}}",,,,"['school', 'point_of_interest', 'establishment']",20 Maxwell Road,,1.2792559,103.8447685
ChIJCRJZ7MwZ2jERzmE-FuPDe0o,Haven Schoolhouse (Tanjong Pagar Infant & Toddler Centre),OPERATIONAL,"{'location': {'lat': 1.2762638, 'lng': 103.8417177}, 'viewport': {'northeast': {'lat': 1.277542980291502, 'lng': 103.8431543302915}, 'southwest': {'lat': 1.274845019708498, 'lng': 103.8404563697085}}}",,9.0,5.0,"['school', 'point_of_interest', 'establishment']","101 Cantonment Road, #03-01 Community Club",,1.2762638,103.8417177
ChIJj9gok3wZ2jERqRd0Ab4vKVo,Penguin Swim School,OPERATIONAL,"{'location': {'lat': 1.278027, 'lng': 103.8479839}, 'viewport': {'northeast': {'lat': 1.279521780291502, 'lng': 103.8493295802915}, 'southwest': {'lat': 1.276823819708498, 'lng': 103.8466316197085}}}",,224.0,5.0,"['school', 'health', 'point_of_interest', 'establishment']","160 Robinson Road, #14-04 Singapore Business Federation Center",,1.278027,103.8479839
ChIJZyKj_bwZ2jERbhUrvC08f-M,Internet Academy Europe,OPERATIONAL,"{'location': {'lat': 1.278027, 'lng': 103.8479839}, 'viewport': {'northeast': {'lat': 1.279521780291502, 'lng': 103.8493295802915}, 'southwest': {'lat': 1.276823819708498, 'lng': 103.8466316197085}}}",,,,"['school', 'point_of_interest', 'establishment']","160 Robinson Road, #26-04 SBF Center",,1.278027,103.8479839
ChIJ69ohtzoZ2jERqYMTcQSV1fY,Tennis Wise,OPERATIONAL,"{'location': {'lat': 1.278037, 'lng': 103.8479783}, 'viewport': {'northeast': {'lat': 1.279526780291502, 'lng': 103.8493295802915}, 'southwest': {'lat': 1.276828819708498, 'lng': 103.8466316197085}}}",,1.0,5.0,"['school', 'health', 'point_of_interest', 'establishment']","160 Robinson Road, #14-04",,1.278037,103.8479783
ChIJtRYAjx4Y2jERD02ASa_QK4U,Akadasia Pte. Ltd.,OPERATIONAL,"{'location': {'lat': 1.278037, 'lng': 103.8479783}, 'viewport': {'northeast': {'lat': 1.279526780291502, 'lng': 103.8493295802915}, 'southwest': {'lat': 1.276828819708498, 'lng': 103.8466316197085}}}",,1.0,5.0,"['school', 'point_of_interest', 'establishment']","160 Robinson Road, #14-04 Singapore Business Federation Centre",,1.278037,103.8479783
ChIJ-1B2q_QX2jERYx_WPUoOn70,Tennis Lessons Singapore Pure Sport,OPERATIONAL,"{'location': {'lat': 1.278037, 'lng': 103.8479783}, 'viewport': {'northeast': {'lat': 1.279526780291502, 'lng': 103.8493295802915}, 'southwest': {'lat': 1.276828819708498, 'lng': 103.8466316197085}}}",,91.0,5.0,"['gym', 'school', 'health', 'point_of_interest', 'establishment']","160 Robinson Road, #14-04",,1.278037,103.8479783
ChIJNwash68Z2jERzo1d3I9HOCE,LeClare Preschool,OPERATIONAL,"{'location': {'lat': 1.276181, 'lng': 103.8488134}, 'viewport': {'northeast': {'lat': 1.277649380291502, 'lng': 103.8501791802915}, 'southwest': {'lat': 1.274951419708498, 'lng': 103.8474812197085}}}",,17.0,4.8,"['school', 'point_of_interest', 'establishment']","7 Shenton Way #01-02, Singapore Conference Hall",,1.276181,103.8488134
ChIJZe_CbrwZ2jERLE2BIkr9URM,The Centre for Inner Studies in Singapore Ltd,OPERATIONAL,"{'location': {'lat': 1.2765284, 'lng': 103.8481015}, 'viewport': {'northeast': {'lat': 1.277798080291502, 'lng': 103.8495794802915}, 'southwest': {'lat': 1.275100119708498, 'lng': 103.8468815197085}}}",,18.0,4.6,"['health', 'school', 'point_of_interest', 'establishment']","6A Shenton Way, #02-09/10 Downtown Gallery",,1.2765284,103.8481015
ChIJAys1ZBQZ2jER2jL8meTb618,June’s Beauty School,OPERATIONAL,"{'location': {'lat': 1.2741956, 'lng': 103.8482499}, 'viewport': {'northeast': {'lat': 1.275691330291502, 'lng': 103.8496853302915}, 'southwest': {'lat': 1.272993369708498, 'lng': 103.8469873697085}}}",,,,"['school', 'point_of_interest', 'establishment']",,,1.2741956,103.8482499
ChIJ5_nUFwwZ2jER39xf186xhng,Rutgers Business School Asia Pacific,OPERATIONAL,"{'location': {'lat': 1.2781758, 'lng': 103.8480935}, 'viewport': {'northeast': {'lat': 1.279596180291502, 'lng': 103.8493730802915}, 'southwest': {'lat': 1.276898219708498, 'lng': 103.8466751197085}}}",,,,"['university', 'school', 'point_of_interest', 'establishment']","146 Robinson Road, # 07-01",,1.2781758,103.8480935
ChIJ0yHzdBIZ2jER4_2Uk7A1RrU,Ace Training Pte Ltd,OPERATIONAL,"{'location': {'lat': 1.2794982, 'lng': 103.8490143}, 'viewport': {'northeast': {'lat': 1.280800230291502, 'lng': 103.8504405302915}, 'southwest': {'lat': 1.278102269708498, 'lng': 103.8477425697085}}}",,,,"['school', 'point_of_interest', 'establishment']",108 Robinson Road,,1.2794982,103.8490143
ChIJ4WpxdxMZ2jERyou6EccePSs,Nanyang Institute of Management,OPERATIONAL,"{'location': {'lat': 1.2758149, 'lng': 103.847272}, 'viewport': {'northeast': {'lat': 1.277185080291502, 'lng': 103.8485148802915}, 'southwest': {'lat': 1.274487119708498, 'lng': 103.8458169197085}}}",,2.0,3.0,"['school', 'point_of_interest', 'establishment']","8 Shenton Way, Singapore",,1.2758149,103.847272
ChIJQUuh1cYW2jERX3Y4uK1Xoao,Math Coffee - Secondary School Math Tuition,OPERATIONAL,"{'location': {'lat': 1.2784077, 'lng': 103.8477835}, 'viewport': {'northeast': {'lat': 1.279712130291502, 'lng': 103.8492180802915}, 'southwest': {'lat': 1.277014169708498, 'lng': 103.8465201197085}}}",,58.0,5.0,"['school', 'point_of_interest', 'establishment']","160 Robinson Road, #14-04",,1.2784077,103.8477835
ChIJPXaE0pYQ2jERBo0ZUoE1eeE,GIM Sports,OPERATIONAL,"{'location': {'lat': 1.2771996, 'lng': 103.8534831}, 'viewport': {'northeast': {'lat': 1.278687730291502, 'lng': 103.8550291802915}, 'southwest': {'lat': 1.275989769708498, 'lng': 103.8523312197085}}}",,24.0,4.2,"['gym', 'health', 'school', 'point_of_interest', 'establishment']","5 Straits View, B2-63 to 69 & 71 The Heart East Tower/ Garden Tower, Marina One",,1.2771996,103.8534831
ChIJe3hxNBIZ2jERRbd7WcUI2N8,Cengage Learning Asia,OPERATIONAL,"{'location': {'lat': 1.2780362, 'lng': 103.8497325}, 'viewport': {'northeast': {'lat': 1.279463480291502, 'lng': 103.8509525302915}, 'southwest': {'lat': 1.276765519708498, 'lng': 103.8482545697085}}}",,,,"['school', 'point_of_interest', 'establishment']","5 Shenton Way, UIC Building, Singapore",,1.2780362,103.8497325
ChIJY_pgvhMZ2jERkKqfs9XmvYk,ET Learning Center,OPERATIONAL,"{'location': {'lat': 1.27633, 'lng': 103.848881}, 'viewport': {'northeast': {'lat': 1.277723880291502, 'lng': 103.8501965302915}, 'southwest': {'lat': 1.275025919708498, 'lng': 103.8474985697085}}}",,,,"['university', 'secondary_school', 'school', 'point_of_interest', 'establishment']",9 Shenton Way #05-01Singapore 068813,,1.27633,103.848881
ChIJ7dxlMhAZ2jERhIb-YHx117c,The Ark,OPERATIONAL,"{'location': {'lat': 1.2795485, 'lng': 103.85346}, 'viewport': {'northeast': {'lat': 1.280829830291502, 'lng': 103.8548167802915}, 'southwest': {'lat': 1.278131869708498, 'lng': 103.8521188197085}}}",,,,"['school', 'point_of_interest', 'establishment']","1, 01, Singapore 018936 Straits View",,1.2795485,103.85346
ChIJn3-Zr1gZ2jERE_564cjSp24,Superland Pre-school (IOI),OPERATIONAL,"{'location': {'lat': 1.2798851, 'lng': 103.8514962}, 'viewport': {'northeast': {'lat': 1.281373330291502, 'lng': 103.8529578802915}, 'southwest': {'lat': 1.278675369708498, 'lng': 103.8502599197085}}}",,,,"['school', 'point_of_interest', 'establishment']","2 Central Boulevard #04-01, IOI, Central Boulevard, Towers, Singapore",,1.2798851,103.8514962
ChIJxywPe0MZ2jERWnbayVx1Nck,School,OPERATIONAL,"{'location': {'lat': 1.2766845, 'lng': 103.8480423}, 'viewport': {'northeast': {'lat': 1.278028380291502, 'lng': 103.8493996802915}, 'southwest': {'lat': 1.275330419708498, 'lng': 103.8467017197085}}}",,,,"['school', 'point_of_interest', 'establishment']",Maxwell Link,,1.2766845,103.8480423
ChIJW9LK48kZ2jER4k6Qrew-hc0,Ministerium Fur Musik,OPERATIONAL,"{'location': {'lat': 1.2801234, 'lng': 103.8522414}, 'viewport': {'northeast': {'lat': 1.281364530291502, 'lng': 103.8535196802915}, 'southwest': {'lat': 1.278666569708498, 'lng': 103.8508217197085}}}",,26.0,5.0,"['school', 'point_of_interest', 'establishment']",3 Central Boulevard,,1.2801234,103.8522414
ChIJAys1ZBQZ2jERIsD_e_NuFsg,Princeton Scholarhouse,OPERATIONAL,"{'location': {'lat': 1.2741956, 'lng': 103.8482499}, 'viewport': {'northeast': {'lat': 1.275691330291502, 'lng': 103.8496853302915}, 'southwest': {'lat': 1.272993369708498, 'lng': 103.8469873697085}}}",,,,"['university', 'secondary_school', 'school', 'point_of_interest', 'establishment']",,,1.2741956,103.8482499
ChIJbWbhluMZ2jERjhxqcl-5MhE,Piano Play Piano Studio,OPERATIONAL,"{'location': {'lat': 1.279637, 'lng': 103.854149}, 'viewport': {'northeast': {'lat': 1.281307630291502, 'lng': 103.8554905802915}, 'southwest': {'lat': 1.278609669708498, 'lng': 103.8527926197085}}}",,2.0,5.0,"['school', 'store', 'point_of_interest', 'establishment']","Tower 2, Level 39 Marina Bay Financial Centre",,1.279637,103.854149
ChIJj9gok3wZ2jERqRd0Ab4vKVo,Penguin Swim School,OPERATIONAL,"{'location': {'lat': 1.278027, 'lng': 103.8479839}, 'viewport': {'northeast': {'lat': 1.279521780291502, 'lng': 103.8493295802915}, 'southwest': {'lat': 1.276823819708498, 'lng': 103.8466316197085}}}",,224.0,5.0,"['health', 'school', 'point_of_interest', 'establishment']","160 Robinson Road, #14-04 Singapore Business Federation Center",,1.278027,103.8479839
ChIJZyKj_bwZ2jERbhUrvC08f-M,Internet Academy Europe,OPERATIONAL,"{'location': {'lat': 1.278027, 'lng': 103.8479839}, 'viewport': {'northeast': {'lat': 1.279521780291502, 'lng': 103.8493295802915}, 'southwest': {'lat': 1.276823819708498, 'lng': 103.8466316197085}}}",,,,"['school', 'point_of_interest', 'establishment']","160 Robinson Road, #26-04 SBF Center",,1.278027,103.8479839
ChIJ1UW7cBMZ2jERkUDWq4dWArU,International Centre For Early Childhood,OPERATIONAL,"{'location': {'lat': 1.2759058, 'lng': 103.8473349}, 'viewport': {'northeast': {'lat': 1.277107330291502, 'lng': 103.8485744802915}, 'southwest': {'lat': 1.274409369708498, 'lng': 103.8458765197085}}}",,,,"['school', 'point_of_interest', 'establishment']","8 Shenton Way, Singapore",,1.2759058,103.8473349
ChIJ69ohtzoZ2jERqYMTcQSV1fY,Tennis Wise,OPERATIONAL,"{'location': {'lat': 1.278037, 'lng': 103.8479783}, 'viewport': {'northeast': {'lat': 1.279526780291502, 'lng': 103.8493295802915}, 'southwest': {'lat': 1.276828819708498, 'lng': 103.8466316197085}}}",,1.0,5.0,"['health', 'school', 'point_of_interest', 'establishment']","160 Robinson Road, #14-04",,1.278037,103.8479783
ChIJtRYAjx4Y2jERD02ASa_QK4U,Akadasia Pte. Ltd.,OPERATIONAL,"{'location': {'lat': 1.278037, 'lng': 103.8479783}, 'viewport': {'northeast': {'lat': 1.279526780291502, 'lng': 103.8493295802915}, 'southwest': {'lat': 1.276828819708498, 'lng': 103.8466316197085}}}",,1.0,5.0,"['school', 'point_of_interest', 'establishment']","160 Robinson Road, #14-04 Singapore Business Federation Centre",,1.278037,103.8479783
ChIJ-1B2q_QX2jERYx_WPUoOn70,Tennis Lessons Singapore Pure Sport,OPERATIONAL,"{'location': {'lat': 1.278037, 'lng': 103.8479783}, 'viewport': {'northeast': {'lat': 1.279526780291502, 'lng': 103.8493295802915}, 'southwest': {'lat': 1.276828819708498, 'lng': 103.8466316197085}}}",,91.0,5.0,"['gym', 'health', 'school', 'point_of_interest', 'establishment']","160 Robinson Road, #14-04",,1.278037,103.8479783
ChIJ39SHc58Z2jERjuhyUPGEibo,Cherwell Wine & Spirits,OPERATIONAL,"{'location': {'lat': 1.2781711, 'lng': 103.8480258}, 'viewport': {'northeast': {'lat': 1.279593830291502, 'lng': 103.8493392302915}, 'southwest': {'lat': 1.276895869708498, 'lng': 103.8466412697085}}}",,1.0,5.0,"['school', 'point_of_interest', 'establishment']",160 Robinson Road,,1.2781711,103.8480258
ChIJZ8nIWVfetgURHzHdVTSSWTg,Coaching By Olea,OPERATIONAL,"{'location': {'lat': 1.2782193, 'lng': 103.8479736}, 'viewport': {'northeast': {'lat': 1.279617930291502, 'lng': 103.8493295802915}, 'southwest': {'lat': 1.276919969708498, 'lng': 103.8466316197085}}}",,1.0,5.0,"['health', 'school', 'point_of_interest', 'establishment']","160 Robinson Road, #14-04 SBF Center",,1.2782193,103.8479736
ChIJ16yzJBUZ2jER8FdY_Eklp78,Elemental Concept,OPERATIONAL,"{'location': {'lat': 1.2784325, 'lng': 103.8477771}, 'viewport': {'northeast': {'lat': 1.279827380291502, 'lng': 103.8490512802915}, 'southwest': {'lat': 1.277129419708498, 'lng': 103.8463533197085}}}",,,,"['school', 'point_of_interest', 'establishment']","160 Robinson Road, #14-04",,1.2784325,103.8477771
ChIJlagi-gsZ2jERhawgAhfH6ac,Manchester Business School Worldwide Ltd,OPERATIONAL,"{'location': {'lat': 1.2800305, 'lng': 103.8492068}, 'viewport': {'northeast': {'lat': 1.281384830291502, 'lng': 103.8506865802915}, 'southwest': {'lat': 1.278686869708498, 'lng': 103.8479886197085}}}",,4.0,5.0,"['school', 'point_of_interest', 'establishment']",80 Robinson Road,,1.2800305,103.8492068
ChIJ9fgWjKUb2jER74O7tDEYeqQ,FOS - Fusion of Sounds,OPERATIONAL,"{'location': {'lat': 1.279854, 'lng': 103.782676}, 'viewport': {'northeast': {'lat': 1.281162330291502, 'lng': 103.7839773802915}, 'southwest': {'lat': 1.278464369708498, 'lng': 103.7812794197085}}}",,,,"['school', 'store', 'point_of_interest', 'establishment']",,,1.279854,103.782676
ChIJexiPVKsb2jERdQSKhc7lqrI,Innate Montessori,OPERATIONAL,"{'location': {'lat': 1.2866544, 'lng': 103.7816011}, 'viewport': {'northeast': {'lat': 1.287788380291502, 'lng': 103.7825177302915}, 'southwest': {'lat': 1.285090419708498, 'lng': 103.7798197697085}}}",,16.0,5.0,"['school', 'point_of_interest', 'establishment']","20 Science Park Road, Teletech Park",,1.2866544,103.7816011
ChIJr4liWYEZ2jER176soauNSbw,JHS Montessori,OPERATIONAL,"{'location': {'lat': 1.2792979, 'lng': 103.7886034}, 'viewport': {'northeast': {'lat': 1.280644880291502, 'lng': 103.7900179802915}, 'southwest': {'lat': 1.277946919708498, 'lng': 103.7873200197085}}}",,7.0,5.0,"['school', 'point_of_interest', 'establishment']","9 Chwee Chian Road, Singapore",,1.2792979,103.7886034
ChIJaQ9AVqUb2jERzlhJW9g32rQ,Kumon Asia and Oceania Pte Ltd - Holland Drive,OPERATIONAL,"{'location': {'lat': 1.2799682, 'lng': 103.7864044}, 'viewport': {'northeast': {'lat': 1.281311980291502, 'lng': 103.7877698302915}, 'southwest': {'lat': 1.278614019708498, 'lng': 103.7850718697085}}}",,,,"['school', 'point_of_interest', 'establishment']",8 South Buona Vista Road,,1.2799682,103.7864044
ChIJLSLf3XQb2jERVT4Z3NPWfEQ,The Sherman Preschool,OPERATIONAL,"{'location': {'lat': 1.279911, 'lng': 103.7861912}, 'viewport': {'northeast': {'lat': 1.281193080291502, 'lng': 103.7875599802915}, 'southwest': {'lat': 1.278495119708498, 'lng': 103.7848620197085}}}",,,,"['school', 'point_of_interest', 'establishment']",9 South Buona Vista Road,,1.279911,103.7861912
ChIJr1piWqUb2jER1ZbSkI28Tj0,Evergreen Montessori,OPERATIONAL,"{'location': {'lat': 1.2796163, 'lng': 103.7860689}, 'viewport': {'northeast': {'lat': 1.280950830291502, 'lng': 103.7875504302915}, 'southwest': {'lat': 1.278252869708498, 'lng': 103.7848524697085}}}",,,,"['school', 'point_of_interest', 'establishment']",3 South Buona Vista Road,,1.2796163,103.7860689
ChIJLcEYfPIZ2jERBNrL0ksbG-4,TAG International Tennis Academy @ Winchester Tennis Arena,OPERATIONAL,"{'location': {'lat': 1.286015, 'lng': 103.795423}, 'viewport': {'northeast': {'lat': 1.287354380291502, 'lng': 103.7967678302915}, 'southwest': {'lat': 1.284656419708498, 'lng': 103.7940698697085}}}",,38.0,4.7,"['school', 'health', 'point_of_interest', 'establishment']","12A Winchester Road, Winchester Tennis Arena",,1.286015,103.795423
ChIJXVQOgaMb2jERLL84Go2ARpw,Little Paddington Preschool & Infant Care Winchester,OPERATIONAL,"{'location': {'lat': 1.2856898, 'lng': 103.7944431}, 'viewport': {'northeast': {'lat': 1.287101480291502, 'lng': 103.7957816802915}, 'southwest': {'lat': 1.284403519708498, 'lng': 103.7930837197085}}}",,,,"['school', 'point_of_interest', 'establishment']",9 Winchester Road,,1.2856898,103.7944431
ChIJKSyRI7Qb2jERzs9XHEPgzm0,Winchester Tennis Arena,OPERATIONAL,"{'location': {'lat': 1.2862837, 'lng': 103.7954389}, 'viewport': {'northeast': {'lat': 1.287525780291502, 'lng': 103.7967429802915}, 'southwest': {'lat': 1.284827819708498, 'lng': 103.7940450197085}}}",,26.0,4.3,"['school', 'health', 'point_of_interest', 'establishment']",12A Winchester Road,,1.2862837,103.7954389
ChIJyUrpXLgb2jERXuA6RQN6B04,MapleBear Labrador,OPERATIONAL,"{'location': {'lat': 1.2781867, 'lng': 103.7964805}, 'viewport': {'northeast': {'lat': 1.279562930291502, 'lng': 103.7977244802915}, 'southwest': {'lat': 1.276864969708498, 'lng': 103.7950265197085}}}",,7.0,4.3,"['school', 'point_of_interest', 'establishment']","100H Pasir Panjang Road, #02-01",,1.2781867,103.7964805
ChIJk9NfQsob2jERDRgrFN2aHnk,Little Skool-House Alexandra Hospital,OPERATIONAL,"{'location': {'lat': 1.2861453, 'lng': 103.7997773}, 'viewport': {'northeast': {'lat': 1.287526130291502, 'lng': 103.8012149802915}, 'southwest': {'lat': 1.284828169708498, 'lng': 103.7985170197085}}}",,3.0,5.0,"['school', 'point_of_interest', 'establishment']","378 Alexandra Road Cocoon, Block 25",,1.2861453,103.7997773
ChIJcfpBZ44Z2jERr-2eV0oeiMA,ISS International School,OPERATIONAL,"{'location': {'lat': 1.2806329, 'lng': 103.8057387}, 'viewport': {'northeast': {'lat': 1.281842930291502, 'lng': 103.8073822802915}, 'southwest': {'lat': 1.279144969708498, 'lng': 103.8046843197085}}}",,,,"['school', 'point_of_interest', 'establishment']",21 Preston Road,,1.2806329,103.8057387
ChIJSSs-i8sb2jER_P7Ao7m4WIA,Tah Li Electronics Pte School (1986),OPERATIONAL,"{'location': {'lat': 1.2867152, 'lng': 103.8037402}, 'viewport': {'northeast': {'lat': 1.288025130291502, 'lng': 103.8049378302915}, 'southwest': {'lat': 1.285327169708498, 'lng': 103.8022398697085}}}",,1.0,5.0,"['school', 'point_of_interest', 'establishment']","123 Bukit Merah Lane 1, Singapore",,1.2867152,103.8037402
ChIJAeP-9c4b2jER_MDVlId9W48,Little Footprints Preschool @ Depot,OPERATIONAL,"{'location': {'lat': 1.283162, 'lng': 103.807124}, 'viewport': {'northeast': {'lat': 1.284630880291502, 'lng': 103.8084851302915}, 'southwest': {'lat': 1.281932919708498, 'lng': 103.8057871697085}}}",,21.0,4.7,"['school', 'point_of_interest', 'establishment']",3 Depot Close,,1.283162,103.807124
ChIJM9oSdwAb2jERwzY7pZ61Wq8,Meyyampatti,OPERATIONAL,"{'location': {'lat': 1.285137, 'lng': 103.8012595}, 'viewport': {'northeast': {'lat': 1.286469830291502, 'lng': 103.8026135302915}, 'southwest': {'lat': 1.283771869708498, 'lng': 103.7999155697085}}}",,,,"['secondary_school', 'school', 'point_of_interest', 'establishment']",378 Alexandra Road,,1.285137,103.8012595
ChIJgai76ssb2jERh6mpR9yXkdw,You Cai Chinese & Art Enrichment Center,OPERATIONAL,"{'location': {'lat': 1.2859148, 'lng': 103.8030157}, 'viewport': {'northeast': {'lat': 1.287254080291502, 'lng': 103.8044358302915}, 'southwest': {'lat': 1.284556119708498, 'lng': 103.8017378697085}}}",,1.0,5.0,"['school', 'point_of_interest', 'establishment']","125 Bukit Merah Lane 1, #01-179, Singapore",,1.2859148,103.8030157
ChIJj14hmQwb2jERgWO3U7AJzGQ,Veritas Academy,OPERATIONAL,"{'location': {'lat': 1.2867152, 'lng': 103.8037402}, 'viewport': {'northeast': {'lat': 1.288025130291502, 'lng': 103.8049769302915}, 'southwest': {'lat': 1.285327169708498, 'lng': 103.8022789697085}}}",,,,"['school', 'point_of_interest', 'establishment']",123 Bukit Merah Lane 1,,1.2867152,103.8037402
ChIJiTipWdwb2jER4xIZb2KxO0g,The Pod,CLOSED_TEMPORARILY,"{'location': {'lat': 1.2790406, 'lng': 103.8025301}, 'viewport': {'northeast': {'lat': 1.280332080291502, 'lng': 103.8037178802915}, 'southwest': {'lat': 1.277634119708498, 'lng': 103.8010199197085}}}",,,,"['school', 'point_of_interest', 'establishment']","394 Alexandra Road, Singapore",True,1.2790406,103.8025301
ChIJn8kGCMsb2jER1FImJyAujPk,Training Centre,OPERATIONAL,"{'location': {'lat': 1.2869999, 'lng': 103.8020812}, 'viewport': {'northeast': {'lat': 1.288396980291502, 'lng': 103.8034656802915}, 'southwest': {'lat': 1.285699019708498, 'lng': 103.8007677197085}}}",,,,"['school', 'point_of_interest', 'establishment']",Singapore,,1.2869999,103.8020812
ChIJk9NfQsob2jERDRgrFN2aHnk,Little Skool-House Alexandra Hospital,OPERATIONAL,"{'location': {'lat': 1.2861453, 'lng': 103.7997773}, 'viewport': {'northeast': {'lat': 1.287526130291502, 'lng': 103.8012149802915}, 'southwest': {'lat': 1.284828169708498, 'lng': 103.7985170197085}}}",,3.0,5.0,"['school', 'point_of_interest', 'establishment']","378 Alexandra Road Cocoon, Block 25",,1.2861453,103.7997773
ChIJb9CGKjgb2jERu_IAaVAP9qA,Eezy Drum Lessons,OPERATIONAL,"{'location': {'lat': 1.2875231, 'lng': 103.8031063}, 'viewport': {'northeast': {'lat': 1.289151380291502, 'lng': 103.8046906802915}, 'southwest': {'lat': 1.286453419708498, 'lng': 103.8019927197085}}}",,,,"['school', 'point_of_interest', 'establishment']","1 Queensway, #03-43 Queensway Shopping Centre",,1.2875231,103.8031063
ChIJO7PCJkob2jERWHQPE8jEgkM,The Music Family,OPERATIONAL,"{'location': {'lat': 1.2875972, 'lng': 103.8034663}, 'viewport': {'northeast': {'lat': 1.289188430291502, 'lng': 103.8048706802915}, 'southwest': {'lat': 1.286490469708498, 'lng': 103.8021727197085}}}",,,,"['school', 'store', 'point_of_interest', 'establishment']","1 Queensway, #03-43 Queensway Shopping Centre",,1.2875972,103.8034663
ChIJwxhDFlEZ2jERkvfpJixzY7M,FUN TENNIS,OPERATIONAL,"{'location': {'lat': 1.2877624, 'lng': 103.8038714}, 'viewport': {'northeast': {'lat': 1.289271030291502, 'lng': 103.8050448802915}, 'southwest': {'lat': 1.286573069708498, 'lng': 103.8023469197085}}}",,9.0,5.0,"['school', 'health', 'point_of_interest', 'establishment']","1 Queensway, Queensway Shopping Centre, #02-10",,1.2877624,103.8038714
ChIJPzGeQJcR2jERyh6cTPm4aL0,BrainNow G&T Education Singapore,OPERATIONAL,"{'location': {'lat': 1.2872753, 'lng': 103.8054027}, 'viewport': {'northeast': {'lat': 1.288519130291502, 'lng': 103.8067803802915}, 'southwest': {'lat': 1.285821169708498, 'lng': 103.8040824197085}}}",,112.0,5.0,"['school', 'point_of_interest', 'establishment']","321 Alexandra Road, #02-25 Alexandra Central",,1.2872753,103.8054027
ChIJcfpBZ44Z2jERr-2eV0oeiMA,ISS International School,OPERATIONAL,"{'location': {'lat': 1.2806329, 'lng': 103.8057387}, 'viewport': {'northeast': {'lat': 1.281842930291502, 'lng': 103.8073822802915}, 'southwest': {'lat': 1.279144969708498, 'lng': 103.8046843197085}}}",,,,"['school', 'point_of_interest', 'establishment']",21 Preston Road,,1.2806329,103.8057387
ChIJ99UkHtAb2jER8yBtqCE_Qcs,Zion Kids,OPERATIONAL,"{'location': {'lat': 1.2813056, 'lng': 103.8101245}, 'viewport': {'northeast': {'lat': 1.282760330291502, 'lng': 103.8113858302915}, 'southwest': {'lat': 1.280062369708498, 'lng': 103.8086878697085}}}",,1.0,4.0,"['school', 'point_of_interest', 'establishment']",108 Depot Road,,1.2813056,103.8101245
ChIJhwcFbdAb2jERuMUG1I2EL-4,Appleland Playhouse,OPERATIONAL,"{'location': {'lat': 1.280543, 'lng': 103.811563}, 'viewport': {'northeast': {'lat': 1.281950630291502, 'lng': 103.8127902802915}, 'southwest': {'lat': 1.279252669708498, 'lng': 103.8100923197085}}}",,53.0,5.0,"['school', 'point_of_interest', 'establishment']","Blk 104C Depot Road, #01-03",,1.280543,103.811563
ChIJ_09FPdIb2jERqLGjkLuhIYg,Litespeed Education Pte Ltd,OPERATIONAL,"{'location': {'lat': 1.2851982, 'lng': 103.8115263}, 'viewport': {'northeast': {'lat': 1.286668280291502, 'lng': 103.8129304802915}, 'southwest': {'lat': 1.283970319708498, 'lng': 103.8102325197085}}}",,1.0,5.0,"['school', 'point_of_interest', 'establishment']",3791 Jalan Bukit Merah,,1.2851982,103.8115263
ChIJAeP-9c4b2jER_MDVlId9W48,Little Footprints Preschool @ Depot,OPERATIONAL,"{'location': {'lat': 1.283162, 'lng': 103.807124}, 'viewport': {'northeast': {'lat': 1.284630880291502, 'lng': 103.8084851302915}, 'southwest': {'lat': 1.281932919708498, 'lng': 103.8057871697085}}}",,21.0,4.7,"['school', 'point_of_interest', 'establishment']",3 Depot Close,,1.283162,103.807124
ChIJfbMZFnEU2jER5gfrj5sNgF8,Used Yamaha Kawai Piano Shop,OPERATIONAL,"{'location': {'lat': 1.284947, 'lng': 103.812841}, 'viewport': {'northeast': {'lat': 1.286274480291502, 'lng': 103.8142723802915}, 'southwest': {'lat': 1.283576519708498, 'lng': 103.8115744197085}}}",,2.0,1.0,"['moving_company', 'bar', 'school', 'store', 'point_of_interest', 'establishment']",1001 Jalan Bukit Merah,,1.284947,103.812841
ChIJtYJ0QNEb2jER4kpppXrD4P8,English Corner Publishing Pte Ltd,OPERATIONAL,"{'location': {'lat': 1.2833659, 'lng': 103.8144756}, 'viewport': {'northeast': {'lat': 1.284792380291502, 'lng': 103.8158624802915}, 'southwest': {'lat': 1.282094419708498, 'lng': 103.8131645197085}}}",,1.0,5.0,"['primary_school', 'school', 'point_of_interest', 'establishment']",1003 Bukit Merah Central,,1.2833659,103.8144756
ChIJszr51FEa2jERFNZ5xwm7ZfU,Mako Singapore 鲭鲨潜航,OPERATIONAL,"{'location': {'lat': 1.2833919, 'lng': 103.8144416}, 'viewport': {'northeast': {'lat': 1.284814580291502, 'lng': 103.8158266302915}, 'southwest': {'lat': 1.282116619708498, 'lng': 103.8131286697085}}}",,3.0,5.0,"['school', 'store', 'point_of_interest', 'establishment']","1003 Bukit Merah Central, #04-24 Inno Center",,1.2833919,103.8144416
ChIJd8WUQ9Eb2jERFMwpqvsFnKg,Zhengfei Cultural Education Centre - Bukit Merah Central,OPERATIONAL,"{'location': {'lat': 1.2839013, 'lng': 103.8148602}, 'viewport': {'northeast': {'lat': 1.285329580291502, 'lng': 103.8161634302915}, 'southwest': {'lat': 1.282631619708498, 'lng': 103.8134654697085}}}",,,,"['school', 'point_of_interest', 'establishment']",116 Bukit Merah Central,,1.2839013,103.8148602
ChIJI857U3Ib2jERybsW7vuts9w,North London Collegiate School (Singapore),OPERATIONAL,"{'location': {'lat': 1.2819477, 'lng': 103.8095581}, 'viewport': {'northeast': {'lat': 1.283268080291502, 'lng': 103.8108026802915}, 'southwest': {'lat': 1.280570119708498, 'lng': 103.8081047197085}}}",,,,"['primary_school', 'university', 'school', 'point_of_interest', 'establishment']",130 Depot Road,,1.2819477,103.8095581
ChIJOc3tCSAb2jERgT8-GWNMl-w,First Steps Preschool @ Depot Road,OPERATIONAL,"{'location': {'lat': 1.2813034, 'lng': 103.8101301}, 'viewport': {'northeast': {'lat': 1.282760330291502, 'lng': 103.8113877802915}, 'southwest': {'lat': 1.280062369708498, 'lng': 103.8086898197085}}}",,13.0,5.0,"['school', 'point_of_interest', 'establishment']","108 Depot Road, #02-02",,1.2813034,103.8101301
ChIJJ6us_lQb2jERsyOtiAJWU4Y,Little Gems Preschool@Redhill,OPERATIONAL,"{'location': {'lat': 1.2850057, 'lng': 103.8084388}, 'viewport': {'northeast': {'lat': 1.286358930291502, 'lng': 103.8097049302915}, 'southwest': {'lat': 1.283660969708498, 'lng': 103.8070069697085}}}",,,,"['school', 'point_of_interest', 'establishment']","1 Jalan Kilang Barat, One@Redhill, #02-01",,1.2850057,103.8084388
ChIJOXe1zUUb2jERuXcb4pqWgOI,PlayFACTO School @ Bukit Merah | Student Care Bukit Merah,OPERATIONAL,"{'location': {'lat': 1.2852514, 'lng': 103.8115787}, 'viewport': {'northeast': {'lat': 1.286689580291502, 'lng': 103.8129683302915}, 'southwest': {'lat': 1.283991619708498, 'lng': 103.8102703697085}}}",,21.0,5.0,"['school', 'point_of_interest', 'establishment']","3791 Jalan Bukit Merah, #05-14 E-Centre@Redhill",,1.2852514,103.8115787
ChIJN-CaPdIb2jERq2jkPTYYbbA,Childhood Builder Preschool,OPERATIONAL,"{'location': {'lat': 1.2853333, 'lng': 103.8115297}, 'viewport': {'northeast': {'lat': 1.286737030291502, 'lng': 103.8129296302915}, 'southwest': {'lat': 1.284039069708498, 'lng': 103.8102316697085}}}",,,,"['school', 'point_of_interest', 'establishment']",Singapore,,1.2853333,103.8115297
ChIJFZ2_g9Eb2jERVl5jI7x1nyE,Globibo Language School,OPERATIONAL,"{'location': {'lat': 1.2842137, 'lng': 103.8126711}, 'viewport': {'northeast': {'lat': 1.285541880291502, 'lng': 103.8140913802915}, 'southwest': {'lat': 1.282843919708498, 'lng': 103.8113934197085}}}",,2.0,3.0,"['school', 'point_of_interest', 'establishment']","Jalan Bukit Merah, #04-10 Blk 1002",,1.2842137,103.8126711
ChIJ0451Y9Eb2jERfQBHkMCiMBs,Bianka Panova Academy,OPERATIONAL,"{'location': {'lat': 1.2847568, 'lng': 103.8138566}, 'viewport': {'northeast': {'lat': 1.286004380291502, 'lng': 103.8153097802915}, 'southwest': {'lat': 1.283306419708498, 'lng': 103.8126118197085}}}",,27.0,4.6,"['gym', 'school', 'health', 'point_of_interest', 'establishment']","2 Bukit Merah Central, #02-03",,1.2847568,103.8138566
ChIJVVVV3dAb2jERVg-FFTXHzmk,Little Olive Tree (Bethesda Depot Walk),OPERATIONAL,"{'location': {'lat': 1.2817811, 'lng': 103.8143794}, 'viewport': {'northeast': {'lat': 1.283000530291502, 'lng': 103.8158602802915}, 'southwest': {'lat': 1.280302569708498, 'lng': 103.8131623197085}}}",,4.0,4.8,"['school', 'point_of_interest', 'establishment']",10 Depot Walk,,1.2817811,103.8143794
ChIJr-gxt9Mb2jERIMgNDtjR_3U,Bukit Merah Secondary School,OPERATIONAL,"{'location': {'lat': 1.2862117, 'lng': 103.8136467}, 'viewport': {'northeast': {'lat': 1.287659430291502, 'lng': 103.8149200802915}, 'southwest': {'lat': 1.284961469708498, 'lng': 103.8122221197085}}}",,,,"['school', 'point_of_interest', 'establishment']","10 Lengkok Bahru, Singapore",,1.2862117,103.8136467
ChIJtYJ0QNEb2jER4kpppXrD4P8,English Corner Publishing Pte Ltd,OPERATIONAL,"{'location': {'lat': 1.2833659, 'lng': 103.8144756}, 'viewport': {'northeast': {'lat': 1.284792380291502, 'lng': 103.8158624802915}, 'southwest': {'lat': 1.282094419708498, 'lng': 103.8131645197085}}}",,1.0,5.0,"['primary_school', 'school', 'point_of_interest', 'establishment']",1003 Bukit Merah Central,,1.2833659,103.8144756
ChIJtUSUo9Yb2jERqUmCiMHgCV4,Apple Plus School - The Bukit Merah Centre,OPERATIONAL,"{'location': {'lat': 1.2836838, 'lng': 103.8169845}, 'viewport': {'northeast': {'lat': 1.284944830291502, 'lng': 103.8179883302915}, 'southwest': {'lat': 1.282246869708498, 'lng': 103.8152903697085}}}",,,,"['school', 'point_of_interest', 'establishment']",163 Bukit Merah Central,,1.2836838,103.8169845
ChIJl4TEsNYb2jERR5GTjzvb-JM,Brick-Lets,OPERATIONAL,"{'location': {'lat': 1.2837992, 'lng': 103.8164433}, 'viewport': {'northeast': {'lat': 1.285172530291502, 'lng': 103.8176994802915}, 'southwest': {'lat': 1.282474569708498, 'lng': 103.8150015197085}}}",,,,"['school', 'point_of_interest', 'establishment']","712, 911538 Bukit Merah Central, PO Box",,1.2837992,103.8164433
